{"stations":[{"id":"1","type":"BIKE","latitude":"41.397952","longitude":"2.180042","streetName":"Gran Via Corts Catalanes","streetNumber":"760","altitude":"21","slots":"28","bikes":"2","nearbyStations":"24, 369, 387, 426","status":"OPN"},{"id":"2","type":"BIKE","latitude":"41.39553","longitude":"2.17706","streetName":"Roger de Flor\/ Gran V\u00eda","streetNumber":"126","altitude":"21","slots":"17","bikes":"6","nearbyStations":"360, 368, 387, 414","status":"OPN"},{"id":"3","type":"BIKE","latitude":"41.394055","longitude":"2.181299","streetName":"N\u00e0pols","streetNumber":"82","altitude":"22","slots":"16","bikes":"9","nearbyStations":"4, 6, 119, 419","status":"OPN"},{"id":"4","type":"BIKE","latitude":"41.39348","longitude":"2.181555","streetName":"Ribes","streetNumber":"13","altitude":"21","slots":"3","bikes":"17","nearbyStations":"3, 5, 359, 419","status":"OPN"},{"id":"5","type":"BIKE","latitude":"41.391075","longitude":"2.180223","streetName":"Pg Llu\u00eds Companys","streetNumber":"11","altitude":"16","slots":"27","bikes":"11","nearbyStations":"6, 7, 359, 418","status":"OPN"},{"id":"6","type":"BIKE","latitude":"41.391349","longitude":"2.18061","streetName":"Pg Llu\u00eds Companys","streetNumber":"18","altitude":"16","slots":"31","bikes":"7","nearbyStations":"5, 8, 359, 419","status":"OPN"},{"id":"7","type":"BIKE","latitude":"41.388856","longitude":"2.183251","streetName":"Pg Llu\u00eds Companys","streetNumber":"1","altitude":"16","slots":"2","bikes":"25","nearbyStations":"8, 118, 389","status":"OPN"},{"id":"8","type":"BIKE","latitude":"41.389088","longitude":"2.183568","streetName":"Pg Llu\u00eds Companys","streetNumber":"2","altitude":"11","slots":"14","bikes":"13","nearbyStations":"6, 118, 389","status":"OPN"},{"id":"9","type":"BIKE","latitude":"41.384532","longitude":"2.184921","streetName":"Marqu\u00e8s de l'Argentera","streetNumber":"13","altitude":"11","slots":"14","bikes":"12","nearbyStations":"14, 40, 115, 389, 390","status":"OPN"},{"id":"11","type":"BIKE","latitude":"41.381689","longitude":"2.193914","streetName":"Passeig Mar\u00edtim","streetNumber":"19","altitude":"1","slots":"12","bikes":"7","nearbyStations":"116, 124, 125, 396","status":"OPN"},{"id":"12","type":"BIKE","latitude":"41.384538","longitude":"2.195679","streetName":"Pg Mar\u00edtim Barceloneta","streetNumber":"23","altitude":"0","slots":"12","bikes":"18","nearbyStations":"11, 13, 116, 396","status":"OPN"},{"id":"13","type":"BIKE","latitude":"41.386861","longitude":"2.195761","streetName":"Avinguda Litoral","streetNumber":"16","altitude":"1","slots":"20","bikes":"11","nearbyStations":"11, 12, 46, 69","status":"OPN"},{"id":"14","type":"BIKE","latitude":"41.384675","longitude":"2.185039","streetName":"Avinguda del Marques Argentera","streetNumber":"15","altitude":"11","slots":"25","bikes":"0","nearbyStations":"9, 40, 115, 389, 390","status":"OPN"},{"id":"15","type":"BIKE","latitude":"41.394812","longitude":"2.171189","streetName":"Girona","streetNumber":"68","altitude":"40","slots":"13","bikes":"4","nearbyStations":"23, 25, 362, 413","status":"OPN"},{"id":"16","type":"BIKE","latitude":"41.39827","longitude":"2.186708","streetName":"Av. Meridiana","streetNumber":"47","altitude":"18","slots":"6","bikes":"14","nearbyStations":"17, 44, 48, 372","status":"OPN"},{"id":"17","type":"BIKE","latitude":"41.398237","longitude":"2.186711","streetName":"Av. Meridiana","streetNumber":"47","altitude":"18","slots":"9","bikes":"12","nearbyStations":"16, 48, 211, 372","status":"OPN"},{"id":"18","type":"BIKE","latitude":"41.406086","longitude":"2.174167","streetName":"Rossell\u00f3","streetNumber":"453","altitude":"49","slots":"27","bikes":"0","nearbyStations":"19, 28, 120, 370","status":"OPN"},{"id":"19","type":"BIKE","latitude":"41.403282","longitude":"2.170726","streetName":"Rossell\u00f3","streetNumber":"354","altitude":"49","slots":"20","bikes":"8","nearbyStations":"18, 22, 29, 370","status":"OPN"},{"id":"20","type":"BIKE","latitude":"41.410166","longitude":"2.175759","streetName":"Cartagena","streetNumber":"308","altitude":"59","slots":"19","bikes":"1","nearbyStations":"21, 28, 164, 177, 278","status":"OPN"},{"id":"21","type":"BIKE","latitude":"41.410897","longitude":"2.17402","streetName":"Sant Antoni Maria Claret","streetNumber":"214","altitude":"59","slots":"18","bikes":"2","nearbyStations":"20, 28, 164, 278","status":"OPN"},{"id":"22","type":"BIKE","latitude":"41.401684","longitude":"2.17568","streetName":"Sardenya","streetNumber":"292","altitude":"28","slots":"13","bikes":"7","nearbyStations":"29, 120, 369, 370","status":"OPN"},{"id":"23","type":"BIKE","latitude":"41.392526","longitude":"2.171812","streetName":"Bruc","streetNumber":"45","altitude":"42","slots":"18","bikes":"9","nearbyStations":"15, 360, 363, 413","status":"OPN"},{"id":"24","type":"BIKE","latitude":"41.400659","longitude":"2.179111","streetName":"Marina","streetNumber":"199","altitude":"30","slots":"28","bikes":"1","nearbyStations":"1, 30, 369, 426","status":"OPN"},{"id":"25","type":"BIKE","latitude":"41.395179","longitude":"2.168294","streetName":"Bruc","streetNumber":"102","altitude":"42","slots":"3","bikes":"18","nearbyStations":"15, 123, 362, 413","status":"OPN"},{"id":"26","type":"BIKE","latitude":"41.407035","longitude":"2.181981","streetName":"Dos Maig","streetNumber":"230","altitude":"28","slots":"0","bikes":"18","nearbyStations":"120, 121, 177, 371","status":"OPN"},{"id":"27","type":"BIKE","latitude":"41.396897","longitude":"2.164373","streetName":"Proven\u00e7a","streetNumber":"322","altitude":"49","slots":"19","bikes":"2","nearbyStations":"123, 189, 224, 374","status":"OPN"},{"id":"28","type":"BIKE","latitude":"41.405422","longitude":"2.17064","streetName":"Sardenya","streetNumber":"362","altitude":"45","slots":"23","bikes":"1","nearbyStations":"18, 20, 122, 277","status":"OPN"},{"id":"29","type":"BIKE","latitude":"41.401132","longitude":"2.170028","streetName":"Proven\u00e7a","streetNumber":"388","altitude":"50","slots":"4","bikes":"16","nearbyStations":"19, 224, 360, 370","status":"OPN"},{"id":"30","type":"BIKE","latitude":"41.402046","longitude":"2.182286","streetName":"Diagonal","streetNumber":"231","altitude":"28","slots":"8","bikes":"11","nearbyStations":"24, 218, 369, 371","status":"OPN"},{"id":"31","type":"BIKE","latitude":"41.37481","longitude":"2.18895","streetName":"Pla\u00e7a del Mar","streetNumber":"72","altitude":"1","slots":"1","bikes":"17","nearbyStations":"33, 39, 41, 124","status":"OPN"},{"id":"32","type":"BIKE","latitude":"41.373698","longitude":"2.188927","streetName":"Pla\u00e7a del Mar","streetNumber":"1","altitude":"1","slots":"3","bikes":"23","nearbyStations":"31, 33, 124, 400","status":"OPN"},{"id":"33","type":"BIKE","latitude":"41.376862","longitude":"2.190773","streetName":"Pontevedra ","streetNumber":"58B","altitude":"1","slots":"13","bikes":"5","nearbyStations":"31, 41, 124, 424","status":"OPN"},{"id":"34","type":"BIKE","latitude":"41.387074","longitude":"2.175247","streetName":"Sant Pere M\u00e9s Alt","streetNumber":"4","altitude":"16","slots":"0","bikes":"21","nearbyStations":"36, 105, 359, 380","status":"OPN"},{"id":"35","type":"BIKE","latitude":"41.413592","longitude":"2.221153","streetName":"Sant Ramon de Penyafort","streetNumber":"1","altitude":"1","slots":"21","bikes":"6","nearbyStations":"157, 158, 159, 160","status":"OPN"},{"id":"36","type":"BIKE","latitude":"41.385151","longitude":"2.176804","streetName":"Catedral","streetNumber":"6","altitude":"16","slots":"3","bikes":"16","nearbyStations":"34, 35, 53, 358, 380","status":"OPN"},{"id":"37","type":"BIKE","latitude":"41.381226","longitude":"2.181888","streetName":"Pl. Antonio L\u00f3pez","streetNumber":"","altitude":"5","slots":"2","bikes":"22","nearbyStations":"38, 115, 126, 401","status":"OPN"},{"id":"38","type":"BIKE","latitude":"41.381129","longitude":"2.186397","streetName":"Pl. Pau Vila","streetNumber":"","altitude":"1","slots":"1","bikes":"20","nearbyStations":"39, 40, 124, 126","status":"OPN"},{"id":"39","type":"BIKE","latitude":"41.381046","longitude":"2.186576","streetName":"Pl. Pau Vila","streetNumber":"","altitude":"1","slots":"0","bikes":"21","nearbyStations":"38, 40, 124, 126","status":"OPN"},{"id":"40","type":"BIKE","latitude":"41.382335","longitude":"2.187093","streetName":"Doctor Aiguader","streetNumber":"2","altitude":"1","slots":"2","bikes":"14","nearbyStations":"37, 38, 116, 402","status":"OPN"},{"id":"41","type":"BIKE","latitude":"41.379326","longitude":"2.189906","streetName":"Pl. Poeta Bosc\u00e0\/Atl\u00e0ntida","streetNumber":"","altitude":"1","slots":"8","bikes":"11","nearbyStations":"31, 39, 124, 424","status":"OPN"},{"id":"42","type":"BIKE","latitude":"41.404511","longitude":"2.189881","streetName":"Ciutat de Granada","streetNumber":"168","altitude":"18","slots":"2","bikes":"22","nearbyStations":"43, 44, 133, 286","status":"OPN"},{"id":"43","type":"BIKE","latitude":"41.40541","longitude":"2.18712","streetName":"Av Meridiana","streetNumber":"80","altitude":"18","slots":"2","bikes":"23","nearbyStations":"30, 42, 44, 218","status":"OPN"},{"id":"44","type":"BIKE","latitude":"41.402285","longitude":"2.187111","streetName":"Av Meridiana","streetNumber":"66","altitude":"18","slots":"10","bikes":"8","nearbyStations":"30, 42, 43, 286","status":"OPN"},{"id":"45","type":"BIKE","latitude":"41.391429","longitude":"2.189312","streetName":"Marina ","streetNumber":"66","altitude":"18","slots":"0","bikes":"15","nearbyStations":"47, 118, 392, 409","status":"OPN"},{"id":"46","type":"BIKE","latitude":"41.388359","longitude":"2.193004","streetName":"Ramon trias Fargas","streetNumber":"19","altitude":"1","slots":"30","bikes":"0","nearbyStations":"47, 69, 392, 407","status":"OPN"},{"id":"47","type":"BIKE","latitude":"41.389076","longitude":"2.192104","streetName":"Ramon Trias Fargas","streetNumber":"","altitude":"1","slots":"1","bikes":"35","nearbyStations":"13, 46, 392, 407","status":"OPN"},{"id":"48","type":"BIKE","latitude":"41.396085","longitude":"2.187073","streetName":"Meridiana","streetNumber":"40","altitude":"18","slots":"13","bikes":"7","nearbyStations":"16, 118, 149, 211","status":"OPN"},{"id":"49","type":"BIKE","latitude":"41.39106","longitude":"2.196457","streetName":"Rosa Sensat en front","streetNumber":"20","altitude":"1","slots":"21","bikes":"0","nearbyStations":"46, 117, 163, 396","status":"CLS"},{"id":"50","type":"BIKE","latitude":"41.375","longitude":"2.17035","streetName":"Av. Paral.lel","streetNumber":"54","altitude":"1","slots":"19","bikes":"8","nearbyStations":"114, 187, 232, 233","status":"OPN"},{"id":"51","type":"BIKE","latitude":"41.384054","longitude":"2.169019","streetName":"Pl. Vicen\u00e7 Martorell","streetNumber":"","altitude":"32","slots":"9","bikes":"11","nearbyStations":"55, 58, 59, 63","status":"OPN"},{"id":"53","type":"BIKE","latitude":"41.385227","longitude":"2.173878","streetName":"Pl. Carles Pi i Sunyer","streetNumber":"","altitude":"32","slots":"17","bikes":"3","nearbyStations":"34, 36, 380, 395","status":"OPN"},{"id":"54","type":"BIKE","latitude":"41.377635","longitude":"2.170586","streetName":"Sant Oleguer","streetNumber":"2","altitude":"24","slots":"1","bikes":"18","nearbyStations":"114, 187, 388, 415","status":"OPN"},{"id":"55","type":"BIKE","latitude":"41.381154","longitude":"2.173497","streetName":"La Rambla","streetNumber":"80","altitude":"24","slots":"12","bikes":"7","nearbyStations":"54, 378, 379, 395","status":"OPN"},{"id":"56","type":"BIKE","latitude":"41.377011","longitude":"2.175834","streetName":"Portal de Santa Madrona","streetNumber":"2","altitude":"5","slots":"10","bikes":"17","nearbyStations":"54, 57, 378, 425","status":"OPN"},{"id":"57","type":"BIKE","latitude":"41.376758","longitude":"2.177093","streetName":"La Rambla","streetNumber":"2","altitude":"5","slots":"13","bikes":"13","nearbyStations":"56, 114, 361, 378","status":"OPN"},{"id":"58","type":"BIKE","latitude":"41.382822","longitude":"2.167154","streetName":"Pla\u00e7a dels \u00c0ngels","streetNumber":"1","altitude":"24","slots":"3","bikes":"16","nearbyStations":"51, 59, 381, 388","status":"OPN"},{"id":"59","type":"BIKE","latitude":"41.382781","longitude":"2.167203","streetName":"Pla\u00e7a dels \u00c0ngels","streetNumber":"2","altitude":"24","slots":"12","bikes":"8","nearbyStations":"51, 58, 381, 388","status":"OPN"},{"id":"60","type":"BIKE","latitude":"41.390349","longitude":"2.16424","streetName":"Rambla Catalunya ","streetNumber":"47","altitude":"41","slots":"24","bikes":"3","nearbyStations":"61, 66, 80, 364","status":"OPN"},{"id":"61","type":"BIKE","latitude":"41.390143","longitude":"2.164946","streetName":"Rambla Catalunya","streetNumber":"42","altitude":"41","slots":"3","bikes":"23","nearbyStations":"60, 80, 287, 364","status":"OPN"},{"id":"62","type":"BIKE","latitude":"41.387142","longitude":"2.168858","streetName":"Pl. Catalunya ","streetNumber":"5","altitude":"32","slots":"14","bikes":"7","nearbyStations":"63, 64, 65, 395","status":"OPN"},{"id":"63","type":"BIKE","latitude":"41.386439","longitude":"2.169417","streetName":"Pl. Catalunya","streetNumber":"7","altitude":"32","slots":"15","bikes":"12","nearbyStations":"62, 64, 65, 395","status":"OPN"},{"id":"64","type":"BIKE","latitude":"41.387469","longitude":"2.169048","streetName":"Pl. Catalunya","streetNumber":"","altitude":"32","slots":"5","bikes":"16","nearbyStations":"62, 63, 65, 395","status":"OPN"},{"id":"65","type":"BIKE","latitude":"41.387678","longitude":"2.169587","streetName":"Pl. Catalunya","streetNumber":"","altitude":"32","slots":"2","bikes":"18","nearbyStations":"62, 63, 64, 395","status":"OPN"},{"id":"66","type":"BIKE","latitude":"41.389097","longitude":"2.167933","streetName":"Gran Via","streetNumber":"609","altitude":"32","slots":"3","bikes":"10","nearbyStations":"61, 64, 79, 287","status":"OPN"},{"id":"67","type":"BIKE","latitude":"41.385012","longitude":"2.145843","streetName":"Rocafort","streetNumber":"214","altitude":"51","slots":"20","bikes":"1","nearbyStations":"75, 87, 89, 365","status":"OPN"},{"id":"68","type":"BIKE","latitude":"41.395364","longitude":"2.157356","streetName":"Rambla Catalunya","streetNumber":"133","altitude":"59","slots":"24","bikes":"0","nearbyStations":"72, 73, 92, 374","status":"OPN"},{"id":"69","type":"BIKE","latitude":"41.386814","longitude":"2.195689","streetName":"Avda. Litoral","streetNumber":"","altitude":"1","slots":"12","bikes":"20","nearbyStations":"12, 13, 125, 397","status":"OPN"},{"id":"70","type":"BIKE","latitude":"41.380347","longitude":"2.160695","streetName":"Comte Urgell","streetNumber":"23","altitude":"35","slots":"7","bikes":"13","nearbyStations":"71, 91, 113, 261","status":"OPN"},{"id":"71","type":"BIKE","latitude":"41.381931","longitude":"2.162969","streetName":"Floridablanca","streetNumber":"145","altitude":"35","slots":"7","bikes":"10","nearbyStations":"70, 78, 113, 148","status":"OPN"},{"id":"72","type":"BIKE","latitude":"41.392716","longitude":"2.158811","streetName":"Proven\u00e7a","streetNumber":"215","altitude":"55","slots":"23","bikes":"1","nearbyStations":"68, 73, 92, 374","status":"OPN"},{"id":"73","type":"BIKE","latitude":"41.392278","longitude":"2.156183","streetName":"Enric Granados","streetNumber":"93","altitude":"59","slots":"19","bikes":"0","nearbyStations":"68, 72, 76, 92","status":"OPN"},{"id":"74","type":"BIKE","latitude":"41.390062","longitude":"2.143272","streetName":"Josep Tarradellas","streetNumber":"133","altitude":"51","slots":"10","bikes":"10","nearbyStations":"101, 102, 109, 366","status":"OPN"},{"id":"75","type":"BIKE","latitude":"41.385081","longitude":"2.142868","streetName":"Josep Tarradellas","streetNumber":"58","altitude":"51","slots":"19","bikes":"1","nearbyStations":"67, 99, 197, 365","status":"OPN"},{"id":"76","type":"BIKE","latitude":"41.391751","longitude":"2.153123","streetName":"C\u00f2rsega","streetNumber":"216","altitude":"45","slots":"30","bikes":"0","nearbyStations":"72, 73, 88, 90","status":"OPN"},{"id":"78","type":"BIKE","latitude":"41.385598","longitude":"2.16338","streetName":"Pl. Universitat","streetNumber":"","altitude":"41","slots":"0","bikes":"25","nearbyStations":"71, 79, 209, 406","status":"OPN"},{"id":"79","type":"BIKE","latitude":"41.38547","longitude":"2.16333","streetName":"Pl. Universitat","streetNumber":"","altitude":"41","slots":"12","bikes":"9","nearbyStations":"78, 209, 287, 406","status":"OPN"},{"id":"80","type":"BIKE","latitude":"41.389687","longitude":"2.159999","streetName":"Enric Granados","streetNumber":"35","altitude":"41","slots":"20","bikes":"1","nearbyStations":"60, 209, 385, 394","status":"OPN"},{"id":"81","type":"BIKE","latitude":"41.378915","longitude":"2.149174","streetName":"Vilamar\u00ed davant","streetNumber":"61","altitude":"44","slots":"12","bikes":"6","nearbyStations":"82, 95, 97, 384","status":"OPN"},{"id":"82","type":"BIKE","latitude":"41.379016","longitude":"2.153799","streetName":"Rocafort","streetNumber":"72","altitude":"40","slots":"5","bikes":"26","nearbyStations":"67, 81, 111, 112","status":"OPN"},{"id":"83","type":"BIKE","latitude":"41.384075","longitude":"2.153654","streetName":"Comte Borrell","streetNumber":"177","altitude":"45","slots":"6","bikes":"19","nearbyStations":"87, 89, 110, 111","status":"OPN"},{"id":"84","type":"BIKE","latitude":"41.383047","longitude":"2.157033","streetName":"Comte d'Urgell","streetNumber":"75 B","altitude":"35","slots":"1","bikes":"20","nearbyStations":"78, 91, 110, 209","status":"OPN"},{"id":"85","type":"BIKE","latitude":"41.375076","longitude":"2.159046","streetName":"Paral\u00b7lel","streetNumber":"146","altitude":"35","slots":"16","bikes":"6","nearbyStations":"112, 129, 235, 236","status":"OPN"},{"id":"86","type":"BIKE","latitude":"41.37544","longitude":"2.163","streetName":"Viladomat","streetNumber":"2","altitude":"35","slots":"8","bikes":"18","nearbyStations":"85, 187, 235, 373","status":"OPN"},{"id":"87","type":"BIKE","latitude":"41.383156","longitude":"2.148506","streetName":"Mallorca","streetNumber":"41","altitude":"44","slots":"19","bikes":"2","nearbyStations":"67, 111, 191, 384","status":"OPN"},{"id":"88","type":"BIKE","latitude":"41.393547","longitude":"2.150764","streetName":"Londres","streetNumber":"101","altitude":"59","slots":"19","bikes":"0","nearbyStations":"76, 109, 220, 350","status":"OPN"},{"id":"89","type":"BIKE","latitude":"41.387953","longitude":"2.150169","streetName":"Rossell\u00f3","streetNumber":"101","altitude":"45","slots":"8","bikes":"18","nearbyStations":"76, 90, 110, 365","status":"OPN"},{"id":"90","type":"BIKE","latitude":"41.38834","longitude":"2.150825","streetName":"Rossell\u00f3","streetNumber":"108","altitude":"45","slots":"17","bikes":"1","nearbyStations":"76, 89, 365, 385","status":"OPN"},{"id":"91","type":"BIKE","latitude":"41.380452","longitude":"2.158403","streetName":"Comte Borrell","streetNumber":"119","altitude":"35","slots":"25","bikes":"4","nearbyStations":"70, 112, 113, 261","status":"OPN"},{"id":"92","type":"BIKE","latitude":"41.39386","longitude":"2.160237","streetName":"Proven\u00e7a","streetNumber":"241","altitude":"50","slots":"17","bikes":"0","nearbyStations":"72, 73, 364, 374","status":"OPN"},{"id":"93","type":"BIKE","latitude":"41.375454","longitude":"2.149786","streetName":"Gran Via","streetNumber":"375","altitude":"40","slots":"17","bikes":"6","nearbyStations":"94, 95, 96, 420","status":"OPN"},{"id":"94","type":"BIKE","latitude":"41.375619","longitude":"2.149889","streetName":"Gran Via","streetNumber":"375","altitude":"40","slots":"11","bikes":"12","nearbyStations":"93, 95, 96, 420","status":"OPN"},{"id":"95","type":"BIKE","latitude":"41.376428","longitude":"2.147734","streetName":"Tarragona","streetNumber":"103","altitude":"44","slots":"26","bikes":"6","nearbyStations":"93, 96, 97, 186","status":"OPN"},{"id":"96","type":"BIKE","latitude":"41.374152","longitude":"2.148154","streetName":"Gran Via","streetNumber":"361","altitude":"61","slots":"19","bikes":"1","nearbyStations":"93, 95, 186, 420","status":"OPN"},{"id":"97","type":"BIKE","latitude":"41.378124","longitude":"2.145389","streetName":"Tarragona","streetNumber":"141","altitude":"44","slots":"19","bikes":"2","nearbyStations":"81, 95, 100, 186","status":"OPN"},{"id":"98","type":"BIKE","latitude":"41.380499","longitude":"2.141153","streetName":"Viriat","streetNumber":"45","altitude":"44","slots":"15","bikes":"6","nearbyStations":"75, 99, 100, 421","status":"OPN"},{"id":"99","type":"BIKE","latitude":"41.380632","longitude":"2.141548","streetName":"Viriat","streetNumber":"53","altitude":"44","slots":"18","bikes":"1","nearbyStations":"98, 100, 195, 421","status":"OPN"},{"id":"100","type":"BIKE","latitude":"41.379135","longitude":"2.14409","streetName":"Tarragona","streetNumber":"159","altitude":"44","slots":"17","bikes":"1","nearbyStations":"97, 98, 99, 384","status":"OPN"},{"id":"101","type":"BIKE","latitude":"41.39243","longitude":"2.14321","streetName":"Av. Diagonal","streetNumber":"602","altitude":"69","slots":"26","bikes":"0","nearbyStations":"74, 102, 319, 366","status":"OPN"},{"id":"102","type":"BIKE","latitude":"41.39218","longitude":"2.14213","streetName":"Av. Diagonal","streetNumber":"612","altitude":"69","slots":"22","bikes":"0","nearbyStations":"74, 102, 319, 366","status":"OPN"},{"id":"103","type":"BIKE","latitude":"41.409856","longitude":"2.188217","streetName":"Arag\u00f3","streetNumber":"629","altitude":"17","slots":"5","bikes":"15","nearbyStations":"26, 104, 127, 132","status":"OPN"},{"id":"104","type":"BIKE","latitude":"41.410821","longitude":"2.187365","streetName":"C\/Val\u00e8ncia","streetNumber":"621","altitude":"17","slots":"17","bikes":"10","nearbyStations":"26, 103, 127, 177","status":"OPN"},{"id":"105","type":"BIKE","latitude":"41.389069","longitude":"2.173424","streetName":"PL. Urquinaona","streetNumber":"9","altitude":"32","slots":"21","bikes":"0","nearbyStations":"65, 359, 363, 412","status":"OPN"},{"id":"106","type":"BIKE","latitude":"41.405587","longitude":"2.162317","streetName":"Pl. Joanic","streetNumber":"s\/n","altitude":"59","slots":"18","bikes":"0","nearbyStations":"108, 122, 226, 231","status":"OPN"},{"id":"107","type":"BIKE","latitude":"41.398298","longitude":"2.153128","streetName":"Travessera de Gracia","streetNumber":"92","altitude":"59","slots":"20","bikes":"1","nearbyStations":"68, 219, 220, 223","status":"OPN"},{"id":"108","type":"BIKE","latitude":"41.402314","longitude":"2.164961","streetName":"Ind\u00fastria","streetNumber":"10","altitude":"59","slots":"19","bikes":"2","nearbyStations":"29, 122, 224, 226","status":"OPN"},{"id":"109","type":"BIKE","latitude":"41.390981","longitude":"2.14737","streetName":"C\/ Londres","streetNumber":"53","altitude":"51","slots":"19","bikes":"2","nearbyStations":"89, 101, 350, 365","status":"OPN"},{"id":"110","type":"BIKE","latitude":"41.385377","longitude":"2.154878","streetName":"Avda. Roma","streetNumber":"136","altitude":"43","slots":"18","bikes":"2","nearbyStations":"83, 84, 209, 385","status":"OPN"},{"id":"111","type":"BIKE","latitude":"41.381231","longitude":"2.152755","streetName":"Calabria","streetNumber":"137","altitude":"41","slots":"12","bikes":"9","nearbyStations":"81, 82, 83, 262","status":"OPN"},{"id":"112","type":"BIKE","latitude":"41.377644","longitude":"2.15725","streetName":"Floridablanca","streetNumber":"49","altitude":"40","slots":"16","bikes":"5","nearbyStations":"82, 91, 94, 113","status":"OPN"},{"id":"113","type":"BIKE","latitude":"41.377464","longitude":"2.164725","streetName":"Sant Pau","streetNumber":"51","altitude":"30","slots":"18","bikes":"8","nearbyStations":"70, 112, 129, 427","status":"OPN"},{"id":"114","type":"BIKE","latitude":"41.376801","longitude":"2.173039","streetName":"Pl. Jean Genet","streetNumber":"1","altitude":"24","slots":"2","bikes":"18","nearbyStations":"50, 54, 56, 425","status":"OPN"},{"id":"115","type":"BIKE","latitude":"41.38377","longitude":"2.18424","streetName":"Marqu\u00e9s d'Argentera","streetNumber":"3","altitude":"1","slots":"17","bikes":"3","nearbyStations":"14, 37, 401","status":"OPN"},{"id":"116","type":"BIKE","latitude":"41.383718","longitude":"2.191414","streetName":"Salvat Papasseit","streetNumber":"72","altitude":"11","slots":"25","bikes":"0","nearbyStations":"11, 13, 38, 39","status":"OPN"},{"id":"117","type":"BIKE","latitude":"41.390666","longitude":"2.197024","streetName":"Rosa Sensat","streetNumber":"12","altitude":"1","slots":"17","bikes":"4","nearbyStations":"46, 49, 163, 396","status":"OPN"},{"id":"118","type":"BIKE","latitude":"41.392212","longitude":"2.187847","streetName":"Sardenya","streetNumber":"3","altitude":"18","slots":"0","bikes":"26","nearbyStations":"7, 8, 45, 149","status":"OPN"},{"id":"119","type":"BIKE","latitude":"41.396684","longitude":"2.182447","streetName":"Sardenya","streetNumber":"178","altitude":"21","slots":"7","bikes":"14","nearbyStations":"3, 372, 387, 426","status":"OPN"},{"id":"120","type":"BIKE","latitude":"41.404666","longitude":"2.176515","streetName":"Lepant","streetNumber":"278","altitude":"28","slots":"4","bikes":"16","nearbyStations":"18, 22, 121, 370","status":"OPN"},{"id":"121","type":"BIKE","latitude":"41.406293","longitude":"2.178689","streetName":"Castillejos","streetNumber":"258","altitude":"28","slots":"2","bikes":"17","nearbyStations":"18, 26, 120, 371","status":"OPN"},{"id":"122","type":"BIKE","latitude":"41.405435","longitude":"2.16624","streetName":"N\u00e0pols","streetNumber":"344","altitude":"59","slots":"18","bikes":"2","nearbyStations":"19, 106, 108, 277","status":"OPN"},{"id":"123","type":"BIKE","latitude":"41.398013","longitude":"2.166978","streetName":"Girona","streetNumber":"142","altitude":"45","slots":"1","bikes":"19","nearbyStations":"27, 189, 224, 362","status":"OPN"},{"id":"124","type":"BIKE","latitude":"41.370297","longitude":"2.187808","streetName":"Passeig Joan de Borb\u00f3","streetNumber":"s\/n","altitude":"5","slots":"6","bikes":"18","nearbyStations":"31, 32, 41, 400","status":"OPN"},{"id":"125","type":"BIKE","latitude":"41.384426","longitude":"2.195595","streetName":"Passeig Maritim","streetNumber":"31","altitude":"1","slots":"17","bikes":"1","nearbyStations":"12, 13, 69, 398","status":"OPN"},{"id":"126","type":"BIKE","latitude":"41.380641","longitude":"2.182243","streetName":"Passeig de Colom","streetNumber":"","altitude":"5","slots":"1","bikes":"20","nearbyStations":"37, 115, 377, 402","status":"OPN"},{"id":"127","type":"BIKE","latitude":"41.412322","longitude":"2.19142","streetName":"Arag\u00f3","streetNumber":"661","altitude":"17","slots":"2","bikes":"25","nearbyStations":"103, 104, 128, 238","status":"OPN"},{"id":"128","type":"BIKE","latitude":"41.415581","longitude":"2.19581","streetName":"Rambla Guip\u00fascoa","streetNumber":"43","altitude":"13","slots":"2","bikes":"27","nearbyStations":"127, 130, 135, 238","status":"OPN"},{"id":"129","type":"BIKE","latitude":"41.377068","longitude":"2.161269","streetName":"Manso","streetNumber":"46","altitude":"35","slots":"17","bikes":"10","nearbyStations":"91, 112, 113, 148","status":"OPN"},{"id":"130","type":"BIKE","latitude":"41.419905","longitude":"2.201573","streetName":"Rambla Guip\u00fascoa","streetNumber":"103","altitude":"9","slots":"0","bikes":"24","nearbyStations":"127, 128, 131, 139","status":"OPN"},{"id":"131","type":"BIKE","latitude":"41.422808","longitude":"2.206036","streetName":"Rambla Guip\u00fascoa","streetNumber":"158","altitude":"9","slots":"9","bikes":"16","nearbyStations":"130, 139, 316, 317","status":"OPN"},{"id":"132","type":"BIKE","latitude":"41.408439","longitude":"2.192173","streetName":"Pl. Valent\u00ed Amirall","streetNumber":"","altitude":"13","slots":"1","bikes":"24","nearbyStations":"42, 103, 133, 141","status":"OPN"},{"id":"133","type":"BIKE","latitude":"41.407411","longitude":"2.192819","streetName":"Gran V\u00eda","streetNumber":"902","altitude":"16","slots":"4","bikes":"11","nearbyStations":"42, 43, 132, 141","status":"OPN"},{"id":"134","type":"BIKE","latitude":"41.411433","longitude":"2.198735","streetName":"Bac de Roda","streetNumber":"157","altitude":"10","slots":"2","bikes":"18","nearbyStations":"135, 136, 141, 145","status":"OPN"},{"id":"135","type":"BIKE","latitude":"41.411908","longitude":"2.197936","streetName":"Gran V\u00eda","streetNumber":"981","altitude":"13","slots":"2","bikes":"18","nearbyStations":"136, 137, 141","status":"OPN"},{"id":"136","type":"BIKE","latitude":"41.414226","longitude":"2.201734","streetName":"Gran V\u00eda","streetNumber":"1062","altitude":"9","slots":"17","bikes":"10","nearbyStations":"137, 138, 146","status":"OPN"},{"id":"137","type":"BIKE","latitude":"41.414758","longitude":"2.201538","streetName":"Gran V\u00eda, 1041\/ Selva de Mar","streetNumber":"1041","altitude":"9","slots":"6","bikes":"21","nearbyStations":"130, 136, 138, 146","status":"OPN"},{"id":"138","type":"BIKE","latitude":"41.416966","longitude":"2.205397","streetName":"Gran V\u00eda","streetNumber":"1118","altitude":"9","slots":"3","bikes":"21","nearbyStations":"136, 137, 139, 147","status":"OPN"},{"id":"139","type":"BIKE","latitude":"41.418035","longitude":"2.206023","streetName":"Gran V\u00eda","streetNumber":"1131","altitude":"9","slots":"12","bikes":"14","nearbyStations":"130, 131, 138, 147","status":"OPN"},{"id":"140","type":"BIKE","latitude":"41.38063","longitude":"2.15614","streetName":"Viladomat","streetNumber":"122","altitude":"41","slots":"6","bikes":"21","nearbyStations":"82, 91, 111, 262","status":"OPN"},{"id":"141","type":"BIKE","latitude":"41.40902","longitude":"2.194896","streetName":"Gran Via ","streetNumber":"940","altitude":"13","slots":"18","bikes":"12","nearbyStations":"42, 132, 133, 135","status":"OPN"},{"id":"142","type":"BIKE","latitude":"41.400503","longitude":"2.192511","streetName":"Sancho de \u00c1vila","streetNumber":"104","altitude":"16","slots":"8","bikes":"25","nearbyStations":"42, 44, 143, 211","status":"OPN"},{"id":"143","type":"BIKE","latitude":"41.40325","longitude":"2.19606","streetName":"Sancho de \u00c1vila","streetNumber":"170","altitude":"16","slots":"2","bikes":"24","nearbyStations":"42, 144, 152, 153, 428","status":"OPN"},{"id":"144","type":"BIKE","latitude":"41.40562","longitude":"2.19764","streetName":"Castella","streetNumber":"28","altitude":"16","slots":"17","bikes":"9","nearbyStations":"42, 143, 150, 286","status":"OPN"},{"id":"145","type":"BIKE","latitude":"41.40982","longitude":"2.202904","streetName":"Pere IV","streetNumber":"301","altitude":"9","slots":"27","bikes":"0","nearbyStations":"135, 146, 150, 156","status":"OPN"},{"id":"146","type":"BIKE","latitude":"41.415191","longitude":"2.207111","streetName":"Pere IV","streetNumber":"449","altitude":"9","slots":"4","bikes":"8","nearbyStations":"136, 137, 138, 145","status":"OPN"},{"id":"147","type":"BIKE","latitude":"41.416018","longitude":"2.212658","streetName":"Rambla Prim","streetNumber":"79","altitude":"5","slots":"1","bikes":"23","nearbyStations":"146, 157, 158, 159","status":"OPN"},{"id":"148","type":"BIKE","latitude":"41.378486","longitude":"2.163404","streetName":"Ronda Sant Pau","streetNumber":"79","altitude":"79","slots":"5","bikes":"22","nearbyStations":"70, 113, 388, 415","status":"OPN"},{"id":"149","type":"BIKE","latitude":"41.395905","longitude":"2.192958","streetName":"Pujades","streetNumber":"57B","altitude":"11","slots":"7","bikes":"19","nearbyStations":"45, 48, 118, 409","status":"OPN"},{"id":"150","type":"BIKE","latitude":"41.406549","longitude":"2.203112","streetName":"Espronceda","streetNumber":"124","altitude":"10","slots":"11","bikes":"15","nearbyStations":"144, 145, 154, 155","status":"OPN"},{"id":"151","type":"BIKE","latitude":"41.40065","longitude":"2.19719","streetName":"Pallars","streetNumber":"462","altitude":"6","slots":"7","bikes":"16","nearbyStations":"152, 153, 211, 393, 428","status":"OPN"},{"id":"152","type":"BIKE","latitude":"41.39925","longitude":"2.197421","streetName":"Pujades","streetNumber":"121","altitude":"11","slots":"25","bikes":"1","nearbyStations":"143, 149, 153, 393","status":"OPN"},{"id":"153","type":"BIKE","latitude":"41.401778","longitude":"2.200769","streetName":"Pujades","streetNumber":"173","altitude":"10","slots":"5","bikes":"22","nearbyStations":"152, 154, 165, 393, 428","status":"OPN"},{"id":"154","type":"BIKE","latitude":"41.402454","longitude":"2.201656","streetName":"Pujades","streetNumber":"191","altitude":"10","slots":"5","bikes":"21","nearbyStations":"141, 153, 165, 382","status":"OPN"},{"id":"155","type":"BIKE","latitude":"41.406977","longitude":"2.207602","streetName":"Pujades","streetNumber":"311","altitude":"10","slots":"7","bikes":"25","nearbyStations":"150, 156, 162, 382","status":"OPN"},{"id":"156","type":"BIKE","latitude":"41.409017","longitude":"2.20881","streetName":"Diagonal","streetNumber":"46","altitude":"5","slots":"4","bikes":"23","nearbyStations":"145, 155, 157, 159","status":"OPN"},{"id":"157","type":"BIKE","latitude":"41.412947","longitude":"2.217819","streetName":"C\/ LLULL - RBLA. PRIM","streetNumber":"465","altitude":"0","slots":"0","bikes":"27","nearbyStations":"35, 147, 158, 159, 160","status":"OPN"},{"id":"158","type":"BIKE","latitude":"41.411741","longitude":"2.218546","streetName":"Rambla de Prim","streetNumber":"19","altitude":"1","slots":"13","bikes":"13","nearbyStations":"35, 156, 157, 159, 160","status":"OPN"},{"id":"159","type":"BIKE","latitude":"41.410882","longitude":"2.216703","streetName":"Avda. Diagonal","streetNumber":"26","altitude":"5","slots":"2","bikes":"29","nearbyStations":"35, 156, 157, 158, 160","status":"OPN"},{"id":"160","type":"BIKE","latitude":"41.411026","longitude":"2.219377","streetName":"Avda. d'Eduard Maristany","streetNumber":"1","altitude":"1","slots":"11","bikes":"21","nearbyStations":"35, 156, 157, 158, 159","status":"OPN"},{"id":"161","type":"BIKE","latitude":"41.395009","longitude":"2.196308","streetName":"Ramon Turro","streetNumber":"91","altitude":"11","slots":"4","bikes":"23","nearbyStations":"49, 149, 163, 409","status":"OPN"},{"id":"162","type":"BIKE","latitude":"41.403908","longitude":"2.208436","streetName":"Ramon Turro","streetNumber":"292","altitude":"0","slots":"23","bikes":"0","nearbyStations":"155, 166, 167, 168","status":"OPN"},{"id":"163","type":"BIKE","latitude":"41.3942","longitude":"2.20077","streetName":"Avda. Icaria","streetNumber":"202","altitude":"11","slots":"19","bikes":"7","nearbyStations":"49, 117, 161, 172","status":"OPN"},{"id":"164","type":"BIKE","latitude":"41.411901","longitude":"2.177895","streetName":"Independ\u00e8ncia","streetNumber":"379","altitude":"33","slots":"7","bikes":"20","nearbyStations":"20, 21, 177, 280","status":"OPN"},{"id":"165","type":"BIKE","latitude":"41.399196","longitude":"2.204253","streetName":"Carrer del Doctor Trueta","streetNumber":"221","altitude":"0","slots":"14","bikes":"11","nearbyStations":"153, 154, 166, 173","status":"OPN"},{"id":"166","type":"BIKE","latitude":"41.400533","longitude":"2.206539","streetName":"Bilbao","streetNumber":"11","altitude":"10","slots":"6","bikes":"16","nearbyStations":"162, 165, 173, 174","status":"OPN"},{"id":"167","type":"BIKE","latitude":"41.402561","longitude":"2.210538","streetName":"Bac de Roda","streetNumber":"11","altitude":"0","slots":"7","bikes":"14","nearbyStations":"162, 166, 168, 176","status":"OPN"},{"id":"168","type":"BIKE","latitude":"41.405358","longitude":"2.213677","streetName":"Selva de Mar","streetNumber":"0","altitude":"0","slots":"1","bikes":"26","nearbyStations":"162, 167, 176, 178","status":"OPN"},{"id":"169","type":"BIKE","latitude":"41.389896","longitude":"2.200055","streetName":"Avda. Litoral","streetNumber":"40","altitude":"0","slots":"8","bikes":"19","nearbyStations":"11, 170, 172, 397","status":"OPN"},{"id":"170","type":"BIKE","latitude":"41.389732","longitude":"2.199934","streetName":"Avda. Litoral","streetNumber":"40","altitude":"1","slots":"21","bikes":"6","nearbyStations":"117, 169, 172, 397","status":"OPN"},{"id":"171","type":"BIKE","latitude":"41.391986","longitude":"2.203699","streetName":"Passeig Mar\u00edtim de la Nova Ic\u00e0ria","streetNumber":"83","altitude":"0","slots":"13","bikes":"12","nearbyStations":"163, 169, 170, 172","status":"OPN"},{"id":"172","type":"BIKE","latitude":"41.391831","longitude":"2.203436","streetName":"Passeig Mar\u00edtim de la Nova Ic\u00e0ria","streetNumber":"83","altitude":"0","slots":"14","bikes":"12","nearbyStations":"163, 169, 170, 171","status":"OPN"},{"id":"173","type":"BIKE","latitude":"41.398027","longitude":"2.208982","streetName":"Avda. Litoral","streetNumber":"84","altitude":"0","slots":"25","bikes":"0","nearbyStations":"166, 171, 174, 190","status":"OPN"},{"id":"174","type":"BIKE","latitude":"41.40061","longitude":"2.210461","streetName":"Passeig de Garcia F\u00e0ria","streetNumber":"21","altitude":"0","slots":"23","bikes":"2","nearbyStations":"166, 173, 176, 178","status":"OPN"},{"id":"175","type":"BIKE","latitude":"41.40666","longitude":"2.20956","streetName":"Llull \/ Proven\u00e7als","streetNumber":"309","altitude":"10","slots":"8","bikes":"17","nearbyStations":"155, 156, 162, 167","status":"OPN"},{"id":"176","type":"BIKE","latitude":"41.402541","longitude":"2.212641","streetName":"Passeig de Garcia F\u00e0ria","streetNumber":"37","altitude":"0","slots":"1","bikes":"26","nearbyStations":"167, 168, 174, 178","status":"OPN"},{"id":"177","type":"BIKE","latitude":"41.411089","longitude":"2.181119","streetName":"Rossell\u00f3","streetNumber":"557","altitude":"0","slots":"10","bikes":"17","nearbyStations":"20, 121, 164, 280","status":"OPN"},{"id":"178","type":"BIKE","latitude":"41.405389","longitude":"2.216212","streetName":"Passeig de Garcia F\u00e0ria","streetNumber":"85","altitude":"0","slots":"17","bikes":"8","nearbyStations":"162, 166, 167, 168","status":"OPN"},{"id":"179","type":"BIKE","latitude":"41.363511","longitude":"2.13677","streetName":"Pg. Zona Franca","streetNumber":"244","altitude":"48","slots":"9","bikes":"11","nearbyStations":"184, 351, 352, 404","status":"OPN"},{"id":"180","type":"BIKE","latitude":"41.36778","longitude":"2.13926","streetName":"Gran Via","streetNumber":"181","altitude":"50","slots":"5","bikes":"22","nearbyStations":"179, 181, 182, 183","status":"OPN"},{"id":"181","type":"BIKE","latitude":"41.36766","longitude":"2.13911","streetName":"Gran Via","streetNumber":"180","altitude":"50","slots":"3","bikes":"24","nearbyStations":"179, 180, 182, 183","status":"OPN"},{"id":"182","type":"BIKE","latitude":"41.371455","longitude":"2.143882","streetName":"Gran Via","streetNumber":"273","altitude":"61","slots":"6","bikes":"18","nearbyStations":"96, 180, 183, 420","status":"OPN"},{"id":"183","type":"BIKE","latitude":"41.372338","longitude":"2.141875","streetName":"Gav\u00e0","streetNumber":"1","altitude":"61","slots":"22","bikes":"2","nearbyStations":"181, 182, 185, 420","status":"OPN"},{"id":"184","type":"BIKE","latitude":"41.367504","longitude":"2.134088","streetName":"Quetzal","streetNumber":"22","altitude":"50","slots":"5","bikes":"22","nearbyStations":"179, 180, 185, 404","status":"OPN"},{"id":"185","type":"BIKE","latitude":"41.37046","longitude":"2.138994","streetName":"Gav\u00e0","streetNumber":"81","altitude":"50","slots":"1","bikes":"18","nearbyStations":"180, 181, 184, 404","status":"OPN"},{"id":"186","type":"BIKE","latitude":"41.375571","longitude":"2.143812","streetName":"Consell de Cent","streetNumber":"6","altitude":"44","slots":"1","bikes":"13","nearbyStations":"95, 96, 210, 420","status":"OPN"},{"id":"187","type":"BIKE","latitude":"41.376858","longitude":"2.169811","streetName":"Carrer de Sant Pau","streetNumber":"89","altitude":"24","slots":"1","bikes":"15","nearbyStations":"50, 54, 416, 427","status":"OPN"},{"id":"188","type":"BIKE","latitude":"41.375492","longitude":"2.135581","streetName":"Pl. Sants (Ps. S. Antoni)","streetNumber":"0","altitude":"45","slots":"9","bikes":"15","nearbyStations":"210, 313, 354, 421","status":"OPN"},{"id":"189","type":"BIKE","latitude":"41.396918","longitude":"2.166163","streetName":"Bruc","streetNumber":"130","altitude":"50","slots":"5","bikes":"16","nearbyStations":"25, 27, 123, 224","status":"OPN"},{"id":"190","type":"BIKE","latitude":"41.39606","longitude":"2.207803","streetName":"Avinguda Litoral","streetNumber":"72","altitude":"0","slots":"22","bikes":"10","nearbyStations":"165, 171, 172, 173","status":"OPN"},{"id":"191","type":"BIKE","latitude":"41.382564","longitude":"2.149094","streetName":"Rocafort","streetNumber":"167","altitude":"44","slots":"27","bikes":"0","nearbyStations":"81, 87, 111, 384","status":"OPN"},{"id":"192","type":"BIKE","latitude":"41.378629","longitude":"2.133467","streetName":"Joan G\u00fcell","streetNumber":"50","altitude":"40","slots":"18","bikes":"2","nearbyStations":"188, 193, 194, 314","status":"OPN"},{"id":"193","type":"BIKE","latitude":"41.381311","longitude":"2.128912","streetName":"Figols","streetNumber":"1","altitude":"46","slots":"26","bikes":"0","nearbyStations":"192, 194, 199, 312","status":"OPN"},{"id":"194","type":"BIKE","latitude":"41.381013","longitude":"2.132319","streetName":"Joan G\u00fcell","streetNumber":"98","altitude":"40","slots":"25","bikes":"1","nearbyStations":"192, 193, 196, 200","status":"OPN"},{"id":"195","type":"BIKE","latitude":"41.381888","longitude":"2.135433","streetName":"Vallespir","streetNumber":"130","altitude":"45","slots":"22","bikes":"1","nearbyStations":"192, 194, 196, 367","status":"OPN"},{"id":"196","type":"BIKE","latitude":"41.383241","longitude":"2.139363","streetName":"Berl\u00edn","streetNumber":"38","altitude":"30","slots":"22","bikes":"1","nearbyStations":"197, 201","status":"OPN"},{"id":"197","type":"BIKE","latitude":"41.38712","longitude":"2.141039","streetName":"Gelabert","streetNumber":"1","altitude":"57","slots":"12","bikes":"12","nearbyStations":"75, 196, 201, 367","status":"OPN"},{"id":"198","type":"BIKE","latitude":"41.38451","longitude":"2.133617","streetName":"Vallespir","streetNumber":"194","altitude":"58","slots":"21","bikes":"5","nearbyStations":"196, 200, 201, 205","status":"OPN"},{"id":"199","type":"BIKE","latitude":"41.38182","longitude":"2.126933","streetName":"Mej\u00eda Lequerica","streetNumber":"2","altitude":"46","slots":"25","bikes":"2","nearbyStations":"193, 200, 202, 312","status":"OPN"},{"id":"200","type":"BIKE","latitude":"41.383756","longitude":"2.131273","streetName":"Can bruixa","streetNumber":"1","altitude":"60","slots":"24","bikes":"0","nearbyStations":"193, 194, 196, 198","status":"OPN"},{"id":"201","type":"BIKE","latitude":"41.387787","longitude":"2.134341","streetName":"Num\u00e0ncia","streetNumber":"136","altitude":"58","slots":"33","bikes":"0","nearbyStations":"198, 206, 207, 208","status":"OPN"},{"id":"202","type":"BIKE","latitude":"41.385331","longitude":"2.128737","streetName":"Carrer de les Corts","streetNumber":"20","altitude":"60","slots":"23","bikes":"1","nearbyStations":"199, 200, 203, 205","status":"OPN"},{"id":"203","type":"BIKE","latitude":"41.388742","longitude":"2.128503","streetName":"Avda. Diagonal","streetNumber":"664","altitude":"60","slots":"20","bikes":"11","nearbyStations":"204, 205, 212, 284","status":"OPN"},{"id":"204","type":"BIKE","latitude":"41.388011","longitude":"2.125593","streetName":"Avda. Diagonal","streetNumber":"668","altitude":"60","slots":"32","bikes":"1","nearbyStations":"202, 203, 205, 212","status":"OPN"},{"id":"205","type":"BIKE","latitude":"41.387465","longitude":"2.130838","streetName":"Europa ","streetNumber":"25","altitude":"60","slots":"2","bikes":"31","nearbyStations":"198, 202, 203, 284","status":"OPN"},{"id":"206","type":"BIKE","latitude":"41.389845","longitude":"2.13284","streetName":"Avda. Diagonal","streetNumber":"650","altitude":"60","slots":"31","bikes":"0","nearbyStations":"201, 207, 208, 284","status":"OPN"},{"id":"207","type":"BIKE","latitude":"41.390828","longitude":"2.136665","streetName":"Avda. Diagonal","streetNumber":"634","altitude":"57","slots":"19","bikes":"1","nearbyStations":"201, 204, 206, 208","status":"OPN"},{"id":"208","type":"BIKE","latitude":"41.391451","longitude":"2.139116","streetName":"Avda. Diagonal","streetNumber":"630","altitude":"57","slots":"15","bikes":"18","nearbyStations":"201, 206, 207, 366","status":"OPN"},{"id":"209","type":"BIKE","latitude":"41.385755","longitude":"2.161004","streetName":"Diputaci\u00f3","streetNumber":"200","altitude":"41","slots":"14","bikes":"12","nearbyStations":"71, 78, 84, 261","status":"OPN"},{"id":"210","type":"BIKE","latitude":"41.37453","longitude":"2.142356","streetName":"Vilardell","streetNumber":"18","altitude":"50","slots":"20","bikes":"6","nearbyStations":"183, 185, 186, 421","status":"OPN"},{"id":"211","type":"BIKE","latitude":"41.398848","longitude":"2.190291","streetName":"Sancho de \u00c1vila","streetNumber":"60","altitude":"18","slots":"22","bikes":"8","nearbyStations":"16, 44, 48, 142","status":"OPN"},{"id":"212","type":"BIKE","latitude":"41.39239","longitude":"2.130945","streetName":"Av. Sarri\u00e0","streetNumber":"163","altitude":"82","slots":"26","bikes":"0","nearbyStations":"203, 206, 284, 325","status":"OPN"},{"id":"213","type":"BIKE","latitude":"41.393783","longitude":"2.135078","streetName":"Sant Fe de Nou M\u00e8xic","streetNumber":"2","altitude":"79","slots":"33","bikes":"0","nearbyStations":"207, 208, 214, 215","status":"OPN"},{"id":"214","type":"BIKE","latitude":"41.395251","longitude":"2.133541","streetName":"Jos\u00e9 de Agull\u00f3","streetNumber":"19","altitude":"85","slots":"24","bikes":"0","nearbyStations":"207, 208, 212, 213","status":"OPN"},{"id":"215","type":"BIKE","latitude":"41.39412","longitude":"2.138146","streetName":"Carrer de Ganduxer","streetNumber":"29","altitude":"79","slots":"18","bikes":"2","nearbyStations":"102, 213, 214, 324","status":"OPN"},{"id":"216","type":"BIKE","latitude":"41.396809","longitude":"2.144534","streetName":"Madrazo","streetNumber":"131","altitude":"69","slots":"26","bikes":"1","nearbyStations":"101, 217, 219, 319","status":"OPN"},{"id":"217","type":"BIKE","latitude":"41.398463","longitude":"2.143924","streetName":"Rector Ubach","streetNumber":"24","altitude":"69","slots":"19","bikes":"4","nearbyStations":"102, 216, 219, 319","status":"OPN"},{"id":"218","type":"BIKE","latitude":"41.404114","longitude":"2.183203","streetName":"Consell de Cent","streetNumber":"566","altitude":"28","slots":"1","bikes":"25","nearbyStations":"30, 43, 369, 371","status":"OPN"},{"id":"219","type":"BIKE","latitude":"41.397698","longitude":"2.147358","streetName":"Carre Laforja","streetNumber":"74","altitude":"69","slots":"23","bikes":"2","nearbyStations":"107, 216, 217, 220","status":"OPN"},{"id":"220","type":"BIKE","latitude":"41.396229","longitude":"2.151482","streetName":"Tuset","streetNumber":"19","altitude":"59","slots":"7","bikes":"17","nearbyStations":"68, 88, 107, 219","status":"OPN"},{"id":"221","type":"BIKE","latitude":"41.402535","longitude":"2.152519","streetName":"Gran de Gr\u00e0cia","streetNumber":"155","altitude":"71","slots":"14","bikes":"11","nearbyStations":"107, 229, 230","status":"OPN"},{"id":"222","type":"BIKE","latitude":"41.40124","longitude":"2.157483","streetName":"Carrer del Can\u00f3","streetNumber":"1","altitude":"71","slots":"26","bikes":"0","nearbyStations":"107, 221, 226, 229","status":"CLS"},{"id":"223","type":"BIKE","latitude":"41.398311","longitude":"2.159865","streetName":"Carrer de Bonavista","streetNumber":"14","altitude":"50","slots":"31","bikes":"2","nearbyStations":"68, 224, 225, 374","status":"OPN"},{"id":"224","type":"BIKE","latitude":"41.399945","longitude":"2.164389","streetName":"Girona","streetNumber":"176","altitude":"55","slots":"8","bikes":"15","nearbyStations":"27, 108, 123, 189","status":"OPN"},{"id":"225","type":"BIKE","latitude":"41.384956","longitude":"2.150814","streetName":"Mallorca","streetNumber":"84","altitude":"44","slots":"24","bikes":"1","nearbyStations":"83, 87, 89, 191","status":"OPN"},{"id":"226","type":"BIKE","latitude":"41.403465","longitude":"2.161096","streetName":"Montmany","streetNumber":"1","altitude":"59","slots":"26","bikes":"0","nearbyStations":"106, 108, 122, 231","status":"OPN"},{"id":"227","type":"BIKE","latitude":"41.407837","longitude":"2.158678","streetName":"Torrent de Les Flors","streetNumber":"102","altitude":"59","slots":"26","bikes":"0","nearbyStations":"106, 228, 231","status":"OPN"},{"id":"228","type":"BIKE","latitude":"41.40694","longitude":"2.155794","streetName":"Pl. Del Nord","streetNumber":"5","altitude":"71","slots":"21","bikes":"0","nearbyStations":"106, 227, 229, 230","status":"OPN"},{"id":"229","type":"BIKE","latitude":"41.405107","longitude":"2.156874","streetName":"Carrer de la Santacreu","streetNumber":"2","altitude":"71","slots":"29","bikes":"1","nearbyStations":"106, 226, 227, 228","status":"OPN"},{"id":"230","type":"BIKE","latitude":"41.405986","longitude":"2.151633","streetName":"C. De Nil Fabra","streetNumber":"16","altitude":"71","slots":"26","bikes":"1","nearbyStations":"221, 228, 229","status":"OPN"},{"id":"231","type":"BIKE","latitude":"41.407202","longitude":"2.163476","streetName":"Pi i Margall","streetNumber":"38","altitude":"82","slots":"23","bikes":"0","nearbyStations":"106, 122, 227, 276","status":"OPN"},{"id":"232","type":"BIKE","latitude":"41.373509","longitude":"2.171002","streetName":"Vil\u00e0 i Vil\u00e0","streetNumber":"45","altitude":"1","slots":"5","bikes":"21","nearbyStations":"50, 233, 234, 427","status":"OPN"},{"id":"233","type":"BIKE","latitude":"41.371965","longitude":"2.166871","streetName":"Nou de la Rambla","streetNumber":"164","altitude":"1","slots":"17","bikes":"10","nearbyStations":"50, 232, 234, 427","status":"OPN"},{"id":"234","type":"BIKE","latitude":"41.371515","longitude":"2.162166","streetName":"Passeig de l'Exposici\u00f3","streetNumber":"30","altitude":"44","slots":"26","bikes":"0","nearbyStations":"85, 233, 235, 236","status":"OPN"},{"id":"235","type":"BIKE","latitude":"41.375065","longitude":"2.165839","streetName":"Paral.lel","streetNumber":"98","altitude":"40","slots":"23","bikes":"4","nearbyStations":"85, 129, 234, 236","status":"OPN"},{"id":"236","type":"BIKE","latitude":"41.375127","longitude":"2.152769","streetName":"Avinguda Paral.lel","streetNumber":"194","altitude":"47","slots":"14","bikes":"10","nearbyStations":"85, 94, 235, 237","status":"OPN"},{"id":"237","type":"BIKE","latitude":"41.372891","longitude":"2.154471","streetName":"Rius i Taulet","streetNumber":"4","altitude":"67","slots":"23","bikes":"4","nearbyStations":"85, 93, 234, 236","status":"OPN"},{"id":"238","type":"BIKE","latitude":"41.415684","longitude":"2.190986","streetName":"Espronceda","streetNumber":"298","altitude":"17","slots":"1","bikes":"26","nearbyStations":"127, 240, 248, 289","status":"OPN"},{"id":"239","type":"BIKE","latitude":"41.417323","longitude":"2.184534","streetName":"Ind\u00fastria","streetNumber":"329","altitude":"18","slots":"17","bikes":"10","nearbyStations":"240, 241, 248, 315","status":"OPN"},{"id":"240","type":"BIKE","latitude":"41.417763","longitude":"2.187558","streetName":"Josep Estivill","streetNumber":"32","altitude":"18","slots":"22","bikes":"5","nearbyStations":"128, 238, 248, 289","status":"OPN"},{"id":"241","type":"BIKE","latitude":"41.419337","longitude":"2.180482","streetName":"Teodor Llorente","streetNumber":"2","altitude":"40","slots":"12","bikes":"21","nearbyStations":"239, 240, 248, 315","status":"OPN"},{"id":"242","type":"BIKE","latitude":"41.424451","longitude":"2.177284","streetName":"Ramon Alb\u00f3","streetNumber":"1","altitude":"37","slots":"26","bikes":"0","nearbyStations":"241, 243, 244, 291","status":"OPN"},{"id":"243","type":"BIKE","latitude":"41.423939","longitude":"2.181298","streetName":"Alenxadre Gal\u00ed","streetNumber":"1","altitude":"37","slots":"23","bikes":"1","nearbyStations":"241, 242, 244, 247","status":"OPN"},{"id":"244","type":"BIKE","latitude":"41.426896","longitude":"2.178511","streetName":"Felip II","streetNumber":"214","altitude":"47","slots":"20","bikes":"7","nearbyStations":"242, 243, 251, 300","status":"OPN"},{"id":"246","type":"BIKE","latitude":"41.422844","longitude":"2.186637","streetName":"Garcilaso","streetNumber":"77","altitude":"18","slots":"14","bikes":"0","nearbyStations":"247, 249, 250, 251","status":"OPN"},{"id":"247","type":"BIKE","latitude":"41.421992","longitude":"2.184806","streetName":"Felipe II","streetNumber":"112","altitude":"19","slots":"13","bikes":"9","nearbyStations":"241, 243, 246, 251","status":"OPN"},{"id":"248","type":"BIKE","latitude":"41.418208","longitude":"2.190374","streetName":"Pal\u00e8ncia","streetNumber":"31","altitude":"18","slots":"18","bikes":"6","nearbyStations":"128, 238, 240, 423","status":"OPN"},{"id":"249","type":"BIKE","latitude":"41.425216","longitude":"2.188997","streetName":"A\u00e7ores","streetNumber":"1","altitude":"18","slots":"17","bikes":"4","nearbyStations":"246, 250, 251, 391","status":"OPN"},{"id":"250","type":"BIKE","latitude":"41.425905","longitude":"2.19115","streetName":"Portugal","streetNumber":"3","altitude":"24","slots":"10","bikes":"11","nearbyStations":"249, 252, 253, 254","status":"OPN"},{"id":"251","type":"BIKE","latitude":"41.425405","longitude":"2.185226","streetName":"Cardenal Tedeschini","streetNumber":"13","altitude":"27","slots":"31","bikes":"0","nearbyStations":"243, 246, 247, 249","status":"OPN"},{"id":"252","type":"BIKE","latitude":"41.429953","longitude":"2.193185","streetName":"Rambla Onze de Setembre","streetNumber":"31","altitude":"18","slots":"11","bikes":"21","nearbyStations":"249, 250, 254, 391","status":"OPN"},{"id":"253","type":"BIKE","latitude":"41.429977","longitude":"2.191821","streetName":"Onze de Setembre","streetNumber":"37","altitude":"18","slots":"20","bikes":"5","nearbyStations":"250, 252, 254","status":"OPN"},{"id":"254","type":"BIKE","latitude":"41.429985","longitude":"2.190163","streetName":"Gran de Sant Andreu","streetNumber":"69","altitude":"25","slots":"15","bikes":"8","nearbyStations":"250, 252, 253, 255","status":"OPN"},{"id":"255","type":"BIKE","latitude":"41.431183","longitude":"2.185852","streetName":"Irlanda","streetNumber":"11","altitude":"27","slots":"18","bikes":"6","nearbyStations":"253, 254, 274","status":"OPN"},{"id":"256","type":"BIKE","latitude":"41.43608","longitude":"2.189542","streetName":"Malats","streetNumber":"28","altitude":"25","slots":"15","bikes":"12","nearbyStations":"255, 259, 285","status":"OPN"},{"id":"257","type":"BIKE","latitude":"41.433897","longitude":"2.189614","streetName":"Sant Adri\u00e0","streetNumber":"2","altitude":"25","slots":"27","bikes":"0","nearbyStations":"253, 254, 255, 256","status":"CLS"},{"id":"258","type":"BIKE","latitude":"41.442167","longitude":"2.193032","streetName":"Fernando Pessoa","streetNumber":"41","altitude":"15","slots":"17","bikes":"9","nearbyStations":"256, 259, 263","status":"OPN"},{"id":"259","type":"BIKE","latitude":"41.439109","longitude":"2.185818","streetName":"Carrer de Bartrina","streetNumber":"14","altitude":"25","slots":"27","bikes":"0","nearbyStations":"256, 258, 267","status":"OPN"},{"id":"260","type":"BIKE","latitude":"41.436163","longitude":"2.192994","streetName":"Pla\u00e7a de l'Estaci\u00f3","streetNumber":"6","altitude":"19","slots":"16","bikes":"9","nearbyStations":"256, 263, 264","status":"OPN"},{"id":"261","type":"BIKE","latitude":"41.382206","longitude":"2.160644","streetName":"Villarroel","streetNumber":"39","altitude":"35","slots":"21","bikes":"6","nearbyStations":"70, 71, 84, 90","status":"OPN"},{"id":"262","type":"BIKE","latitude":"41.379821","longitude":"2.152496","streetName":"Rocafort","streetNumber":"103","altitude":"40","slots":"23","bikes":"10","nearbyStations":"81, 82, 111, 191","status":"OPN"},{"id":"263","type":"BIKE","latitude":"41.437814","longitude":"2.191039","streetName":"Pg.Torras i Bages","streetNumber":"29","altitude":"27","slots":"18","bikes":"2","nearbyStations":"256, 260, 264","status":"OPN"},{"id":"264","type":"BIKE","latitude":"41.439949","longitude":"2.197033","streetName":"Rep\u00fablica Dominicana","streetNumber":"25","altitude":"19","slots":"27","bikes":"5","nearbyStations":"263, 267, 268, 344","status":"OPN"},{"id":"265","type":"BIKE","latitude":"41.385467","longitude":"2.158532","streetName":"Casanovas","streetNumber":"67","altitude":"40","slots":"10","bikes":"7","nearbyStations":"80, 84, 110, 209","status":"OPN"},{"id":"266","type":"BIKE","latitude":"41.426841","longitude":"2.184238","streetName":"Concepci\u00f3 Arenal","streetNumber":"176","altitude":"37","slots":"21","bikes":"4","nearbyStations":"263, 264, 268, 344","status":"OPN"},{"id":"267","type":"BIKE","latitude":"41.443395","longitude":"2.190623","streetName":"Passeig Torras i Bages","streetNumber":"129","altitude":"24","slots":"20","bikes":"7","nearbyStations":"258, 263, 264, 268","status":"OPN"},{"id":"268","type":"BIKE","latitude":"41.445705","longitude":"2.192892","streetName":"Fernando Pessoa","streetNumber":"72","altitude":"23","slots":"26","bikes":"1","nearbyStations":"263, 264, 267, 271","status":"OPN"},{"id":"269","type":"BIKE","latitude":"41.448128","longitude":"2.192826","streetName":"Via Barcino","streetNumber":"121","altitude":"23","slots":"18","bikes":"9","nearbyStations":"264, 268, 270, 271","status":"OPN"},{"id":"270","type":"BIKE","latitude":"41.448628","longitude":"2.18976","streetName":"Crta. de Ribes (Trinitat Vella)","streetNumber":"77","altitude":"24","slots":"13","bikes":"14","nearbyStations":"267, 268, 269, 271","status":"OPN"},{"id":"271","type":"BIKE","latitude":"41.450634","longitude":"2.192335","streetName":"Via Barcino","streetNumber":"69","altitude":"18","slots":"5","bikes":"14","nearbyStations":"267, 268, 269, 270","status":"OPN"},{"id":"272","type":"BIKE","latitude":"41.432559","longitude":"2.184264","streetName":"Concepci\u00f3 Arenal","streetNumber":"281","altitude":"27","slots":"9","bikes":"14","nearbyStations":"255, 273, 274, 298","status":"OPN"},{"id":"273","type":"BIKE","latitude":"41.430404","longitude":"2.183382","streetName":"Avda. Meridiana","streetNumber":"404","altitude":"27","slots":"34","bikes":"0","nearbyStations":"255, 272, 274, 275","status":"OPN"},{"id":"274","type":"BIKE","latitude":"41.430092","longitude":"2.184898","streetName":"Rambla Fabra i Puig","streetNumber":"67","altitude":"27","slots":"32","bikes":"1","nearbyStations":"254, 255, 272, 273","status":"OPN"},{"id":"275","type":"BIKE","latitude":"41.430693","longitude":"2.182225","streetName":"Rio de Janeiro","streetNumber":"3","altitude":"27","slots":"33","bikes":"0","nearbyStations":"272, 273, 274, 298","status":"OPN"},{"id":"276","type":"BIKE","latitude":"41.412163","longitude":"2.165275","streetName":"Pla\u00e7a Alfons X el Savi \/ Ronda del Guinard\u00f3 ","streetNumber":"","altitude":"87","slots":"25","bikes":"0","nearbyStations":"231, 277, 278, 318","status":"OPN"},{"id":"277","type":"BIKE","latitude":"41.408284","longitude":"2.16905","streetName":"Travessera de Gr\u00e0cia","streetNumber":"328","altitude":"59","slots":"26","bikes":"1","nearbyStations":"28, 122, 123, 231","status":"OPN"},{"id":"278","type":"BIKE","latitude":"41.409815","longitude":"2.171621","streetName":"Travessera de Gr\u00e0cia","streetNumber":"368","altitude":"55","slots":"23","bikes":"0","nearbyStations":"20, 21, 28, 277","status":"OPN"},{"id":"279","type":"BIKE","latitude":"41.415951","longitude":"2.174564","streetName":"Mas Casanovas","streetNumber":"137","altitude":"70","slots":"26","bikes":"1","nearbyStations":"278, 280, 281, 318","status":"OPN"},{"id":"280","type":"BIKE","latitude":"41.413986","longitude":"2.177842","streetName":"Sant Antoni M\u00aa Claret","streetNumber":"290","altitude":"37","slots":"23","bikes":"0","nearbyStations":"20, 21, 164, 239","status":"OPN"},{"id":"281","type":"BIKE","latitude":"41.418088","longitude":"2.176313","streetName":"Escornalbou","streetNumber":"51","altitude":"45","slots":"21","bikes":"0","nearbyStations":"241, 242, 243, 279","status":"OPN"},{"id":"282","type":"BIKE","latitude":"41.427561","longitude":"2.166022","streetName":"Font d'en Fargas","streetNumber":"1","altitude":"88","slots":"25","bikes":"2","nearbyStations":"291, 292, 293, 295","status":"OPN"},{"id":"283","type":"BIKE","latitude":"41.42968","longitude":"2.16157","streetName":"Carrer Fulton","streetNumber":"1","altitude":"88","slots":"4","bikes":"16","nearbyStations":"282, 291, 292, 293","status":"OPN"},{"id":"284","type":"BIKE","latitude":"41.389503","longitude":"2.131454","streetName":"Ada. Diagonal","streetNumber":"652","altitude":"60","slots":"9","bikes":"18","nearbyStations":"203, 205, 206, 212","status":"OPN"},{"id":"285","type":"BIKE","latitude":"41.436708","longitude":"2.186059","streetName":"Malats","streetNumber":"98","altitude":"25","slots":"6","bikes":"17","nearbyStations":"256, 259, 272","status":"OPN"},{"id":"286","type":"BIKE","latitude":"41.403103","longitude":"2.191428","streetName":"Bol\u00edvia","streetNumber":"76","altitude":"18","slots":"21","bikes":"0","nearbyStations":"42, 44, 142, 143","status":"OPN"},{"id":"287","type":"BIKE","latitude":"41.389171","longitude":"2.168113","streetName":"Gran Via","streetNumber":"632","altitude":"32","slots":"3","bikes":"10","nearbyStations":"61, 64, 66, 406","status":"OPN"},{"id":"288","type":"BIKE","latitude":"41.429636","longitude":"2.174487","streetName":"Pl. Virrei Amat","streetNumber":"","altitude":"63","slots":"30","bikes":"1","nearbyStations":"244, 291, 292, 293","status":"OPN"},{"id":"289","type":"BIKE","latitude":"41.416828","longitude":"2.191022","streetName":"M\u00farcia","streetNumber":"64","altitude":"18","slots":"25","bikes":"1","nearbyStations":"127, 238, 240, 248","status":"OPN"},{"id":"290","type":"BIKE","latitude":"41.437094","longitude":"2.174047","streetName":"Pla\u00e7a dels Jardins d'Alf\u00e0bia","streetNumber":"1","altitude":"61","slots":"26","bikes":"0","nearbyStations":"294, 295, 299, 301","status":"CLS"},{"id":"291","type":"BIKE","latitude":"41.425897","longitude":"2.17505","streetName":"Cubelles","streetNumber":"2","altitude":"55","slots":"27","bikes":"0","nearbyStations":"242, 244, 282, 292","status":"OPN"},{"id":"292","type":"BIKE","latitude":"41.430036","longitude":"2.171974","streetName":"Amilcar","streetNumber":"1","altitude":"63","slots":"26","bikes":"1","nearbyStations":"282, 291, 293, 300","status":"OPN"},{"id":"293","type":"BIKE","latitude":"41.428388","longitude":"2.163101","streetName":"Granollers","streetNumber":"1","altitude":"95","slots":"24","bikes":"0","nearbyStations":"282, 291, 292, 295","status":"OPN"},{"id":"294","type":"BIKE","latitude":"41.436373","longitude":"2.170678","streetName":"Seu del Districte (Nou Barris)","streetNumber":"","altitude":"61","slots":"24","bikes":"1","nearbyStations":"295, 299, 301","status":"OPN"},{"id":"295","type":"BIKE","latitude":"41.43345","longitude":"2.1715","streetName":"Sant Iscle","streetNumber":"60","altitude":"61","slots":"25","bikes":"2","nearbyStations":"282, 292, 294, 301","status":"OPN"},{"id":"296","type":"BIKE","latitude":"41.436505","longitude":"2.183877","streetName":"Carrer de Rossell\u00f3 i Porcel","streetNumber":"1","altitude":"25","slots":"32","bikes":"0","nearbyStations":"259, 272, 285, 298","status":"OPN"},{"id":"297","type":"BIKE","latitude":"41.438864","longitude":"2.176822","streetName":"Carrer Tur\u00f3 Blau","streetNumber":"1","altitude":"45","slots":"24","bikes":"0","nearbyStations":"296, 298, 299","status":"OPN"},{"id":"298","type":"BIKE","latitude":"41.43463","longitude":"2.181747","streetName":"Andreu Nin","streetNumber":"22","altitude":"45","slots":"29","bikes":"3","nearbyStations":"275, 296, 300","status":"OPN"},{"id":"299","type":"BIKE","latitude":"41.433965","longitude":"2.175199","streetName":"Carrer de l'Escultor Ord\u00f3\u00f1ez","streetNumber":"55","altitude":"45","slots":"26","bikes":"1","nearbyStations":"294, 295, 297, 301","status":"OPN"},{"id":"300","type":"BIKE","latitude":"41.431593","longitude":"2.176909","streetName":"Carrer de Maladeta","streetNumber":"1","altitude":"47","slots":"18","bikes":"0","nearbyStations":"275, 298, 299, 301","status":"OPN"},{"id":"301","type":"BIKE","latitude":"41.437053","longitude":"2.169644","streetName":"Marie Curie","streetNumber":"8","altitude":"61","slots":"20","bikes":"5","nearbyStations":"294, 295, 299","status":"OPN"},{"id":"302","type":"BIKE","latitude":"41.39065","longitude":"2.111615","streetName":"Cavallers","streetNumber":"41","altitude":"73","slots":"18","bikes":"6","nearbyStations":"303, 304, 335, 336","status":"OPN"},{"id":"303","type":"BIKE","latitude":"41.393341","longitude":"2.115076","streetName":"Cavallers","streetNumber":"67","altitude":"101","slots":"15","bikes":"12","nearbyStations":"302, 304, 335, 336","status":"OPN"},{"id":"304","type":"BIKE","latitude":"41.390208","longitude":"2.121029","streetName":"Manuel Girona","streetNumber":"7","altitude":"63","slots":"32","bikes":"0","nearbyStations":"203, 204, 305, 335","status":"OPN"},{"id":"305","type":"BIKE","latitude":"41.387498","longitude":"2.123637","streetName":"Diagonal","streetNumber":"680","altitude":"63","slots":"18","bikes":"5","nearbyStations":"203, 204, 305, 306","status":"OPN"},{"id":"306","type":"BIKE","latitude":"41.385465","longitude":"2.122912","streetName":"Doctor Salvador Cardenal","streetNumber":"7","altitude":"63","slots":"31","bikes":"1","nearbyStations":"199, 204, 305, 310","status":"OPN"},{"id":"307","type":"BIKE","latitude":"41.379135","longitude":"2.113505","streetName":"Pintor Ribalta","streetNumber":"","altitude":"50","slots":"30","bikes":"1","nearbyStations":"308, 309, 310, 311","status":"OPN"},{"id":"308","type":"BIKE","latitude":"41.376788","longitude":"2.113864","streetName":"Cardenal Reig","streetNumber":"11","altitude":"50","slots":"11","bikes":"16","nearbyStations":"307, 309, 310, 311","status":"OPN"},{"id":"309","type":"BIKE","latitude":"41.37674","longitude":"2.116973","streetName":"Sant Ram\u00f3n Nonat","streetNumber":"26","altitude":"47","slots":"15","bikes":"12","nearbyStations":"307, 308, 310, 311","status":"OPN"},{"id":"310","type":"BIKE","latitude":"41.381223","longitude":"2.119077","streetName":"Josep Samitier","streetNumber":"","altitude":"47","slots":"20","bikes":"4","nearbyStations":"306, 307, 309, 311","status":"OPN"},{"id":"311","type":"BIKE","latitude":"41.378638","longitude":"2.120393","streetName":"Gallego-Ar\u00edstides Maillol","streetNumber":"2","altitude":"52","slots":"7","bikes":"17","nearbyStations":"307, 308, 309, 310","status":"OPN"},{"id":"312","type":"BIKE","latitude":"41.379046","longitude":"2.123253","streetName":"Arizala","streetNumber":"77","altitude":"50","slots":"15","bikes":"18","nearbyStations":"193, 199, 311, 353","status":"OPN"},{"id":"313","type":"BIKE","latitude":"41.375366","longitude":"2.129847","streetName":"Feliu de Casanova","streetNumber":"1","altitude":"42","slots":"18","bikes":"5","nearbyStations":"185, 188, 314, 354","status":"OPN"},{"id":"314","type":"BIKE","latitude":"41.37836","longitude":"2.129737","streetName":"Rambla del Brasil","streetNumber":"44","altitude":"46","slots":"22","bikes":"5","nearbyStations":"192, 193, 313, 354","status":"OPN"},{"id":"315","type":"BIKE","latitude":"41.415617","longitude":"2.181966","streetName":"Guinard\u00f3","streetNumber":"32","altitude":"33","slots":"25","bikes":"1","nearbyStations":"177, 239, 241, 280","status":"OPN"},{"id":"316","type":"BIKE","latitude":"41.422212","longitude":"2.198316","streetName":"Cant\u00e0bria","streetNumber":"55","altitude":"13","slots":"6","bikes":"18","nearbyStations":"128, 130, 131, 317","status":"OPN"},{"id":"317","type":"BIKE","latitude":"41.425566","longitude":"2.200693","streetName":"Rambla Prim","streetNumber":"256","altitude":"12","slots":"11","bikes":"16","nearbyStations":"130, 131, 316, 391","status":"OPN"},{"id":"318","type":"BIKE","latitude":"41.413406","longitude":"2.171331","streetName":"Cartagena","streetNumber":"83","altitude":"59","slots":"26","bikes":"0","nearbyStations":"21, 276, 278, 279","status":"OPN"},{"id":"319","type":"BIKE","latitude":"41.393713","longitude":"2.145584","streetName":"Sagu\u00e8s","streetNumber":"1","altitude":"65","slots":"20","bikes":"9","nearbyStations":"101, 102, 216, 219","status":"OPN"},{"id":"320","type":"BIKE","latitude":"41.401118","longitude":"2.147989","streetName":"V\u00eda Augusta","streetNumber":"21","altitude":"80","slots":"25","bikes":"1","nearbyStations":"217, 221, 230, 321","status":"OPN"},{"id":"321","type":"BIKE","latitude":"41.403054","longitude":"2.144549","streetName":"Carrer de Sant Hermenegild","streetNumber":"30","altitude":"80","slots":"27","bikes":"0","nearbyStations":"217, 230, 322, 326","status":"OPN"},{"id":"322","type":"BIKE","latitude":"41.400977","longitude":"2.13907","streetName":"Santal\u00f3","streetNumber":"165","altitude":"106","slots":"27","bikes":"0","nearbyStations":"217, 323, 324, 328","status":"OPN"},{"id":"323","type":"BIKE","latitude":"41.397996","longitude":"2.138717","streetName":"Vallmajor","streetNumber":"13","altitude":"79","slots":"27","bikes":"0","nearbyStations":"214, 215, 217, 324","status":"OPN"},{"id":"324","type":"BIKE","latitude":"41.396938","longitude":"2.136258","streetName":"Reina Victoria","streetNumber":"31","altitude":"79","slots":"26","bikes":"0","nearbyStations":"214, 215, 322, 323","status":"OPN"},{"id":"325","type":"BIKE","latitude":"41.39493","longitude":"2.130325","streetName":"Alt de Gironella","streetNumber":"13","altitude":"82","slots":"23","bikes":"0","nearbyStations":"212, 214, 331, 333","status":"OPN"},{"id":"326","type":"BIKE","latitude":"41.407384","longitude":"2.1383","streetName":"Balmes","streetNumber":"409","altitude":"110","slots":"23","bikes":"9","nearbyStations":"321, 327, 328, 330","status":"OPN"},{"id":"327","type":"BIKE","latitude":"41.405","longitude":"2.13453","streetName":"Reus","streetNumber":"23","altitude":"106","slots":"24","bikes":"0","nearbyStations":"321, 322, 326, 328","status":"OPN"},{"id":"328","type":"BIKE","latitude":"41.40293","longitude":"2.13427","streetName":"Artesa de Segre","streetNumber":"2","altitude":"106","slots":"27","bikes":"0","nearbyStations":"321, 322, 327, 329","status":"OPN"},{"id":"329","type":"BIKE","latitude":"41.402879","longitude":"2.128541","streetName":"Carrer de les Escoles Pies","streetNumber":"99","altitude":"130","slots":"25","bikes":"0","nearbyStations":"327, 328, 330, 332","status":"OPN"},{"id":"330","type":"BIKE","latitude":"41.400587","longitude":"2.130658","streetName":"Doctor Carulla","streetNumber":"44","altitude":"130","slots":"27","bikes":"0","nearbyStations":"328, 329, 331, 332","status":"OPN"},{"id":"331","type":"BIKE","latitude":"41.39706","longitude":"2.12801","streetName":"Castellnou","streetNumber":"65","altitude":"82","slots":"30","bikes":"0","nearbyStations":"325, 332, 333, 335","status":"OPN"},{"id":"332","type":"BIKE","latitude":"41.399833","longitude":"2.128083","streetName":"Doctor Roux","streetNumber":"86","altitude":"82","slots":"26","bikes":"0","nearbyStations":"329, 330, 331, 333","status":"OPN"},{"id":"333","type":"BIKE","latitude":"41.395632","longitude":"2.125106","streetName":"Passatge de Senillosa","streetNumber":"3","altitude":"82","slots":"26","bikes":"1","nearbyStations":"325, 331, 335, 336","status":"OPN"},{"id":"334","type":"BIKE","latitude":"41.400722","longitude":"2.123268","streetName":"Via Augusta","streetNumber":"348","altitude":"138","slots":"26","bikes":"0","nearbyStations":"331, 332, 337, 338","status":"OPN"},{"id":"335","type":"BIKE","latitude":"41.393639","longitude":"2.123224","streetName":"Santa Am\u00e8lia","streetNumber":"2","altitude":"96","slots":"0","bikes":"25","nearbyStations":"212, 304, 333, 336","status":"OPN"},{"id":"336","type":"BIKE","latitude":"41.395274","longitude":"2.120973","streetName":"Caponata","streetNumber":"10","altitude":"96","slots":"24","bikes":"2","nearbyStations":"333, 335, 337, 338","status":"OPN"},{"id":"337","type":"BIKE","latitude":"41.398719","longitude":"2.120422","streetName":"Carme Karr","streetNumber":"12","altitude":"96","slots":"23","bikes":"0","nearbyStations":"333, 334, 336, 338","status":"OPN"},{"id":"338","type":"BIKE","latitude":"41.397572","longitude":"2.119506","streetName":"Avinguda de J.Foix","streetNumber":"63","altitude":"96","slots":"32","bikes":"0","nearbyStations":"333, 334, 336, 337","status":"OPN"},{"id":"339","type":"BIKE","latitude":"41.401662","longitude":"2.205277","streetName":"Ramon Turr\u00f3","streetNumber":"246","altitude":"9","slots":"2","bikes":"24","nearbyStations":"153, 154, 165, 382","status":"OPN"},{"id":"340","type":"BIKE","latitude":"41.43619","longitude":"2.204573","streetName":"Sant Adri\u00e0","streetNumber":"113","altitude":"28","slots":"4","bikes":"17","nearbyStations":"264, 343, 344","status":"OPN"},{"id":"341","type":"BIKE","latitude":"41.433958","longitude":"2.206166","streetName":"Pl. Moss\u00e8n Joan Cortines","streetNumber":".","altitude":"28","slots":"25","bikes":"0","nearbyStations":"264, 340, 343, 344","status":"CLS"},{"id":"342","type":"BIKE","latitude":"41.403502","longitude":"2.193702","streetName":"Roc Boronat","streetNumber":"134","altitude":"18","slots":"5","bikes":"21","nearbyStations":"142, 152, 153, 393, 428","status":"OPN"},{"id":"343","type":"BIKE","latitude":"41.438886","longitude":"2.199598","streetName":"Campana de la Maquinista","streetNumber":"","altitude":"19","slots":"18","bikes":"8","nearbyStations":"260, 264, 340, 344","status":"OPN"},{"id":"344","type":"BIKE","latitude":"41.443127","longitude":"2.199538","streetName":"Ciutat d'Asunci\u00f3n","streetNumber":"73","altitude":"23","slots":"12","bikes":"14","nearbyStations":"260, 263, 264, 343","status":"OPN"},{"id":"345","type":"BIKE","latitude":"41.363093","longitude":"2.139771","streetName":"Pl. Teresa de Claramunt","streetNumber":"","altitude":"48","slots":"0","bikes":"33","nearbyStations":"179, 180, 346, 351","status":"OPN"},{"id":"346","type":"BIKE","latitude":"41.360654","longitude":"2.139132","streetName":"Carrer de la Foneria","streetNumber":"33","altitude":"48","slots":"17","bikes":"16","nearbyStations":"345, 347, 348, 349","status":"OPN"},{"id":"347","type":"BIKE","latitude":"41.359496","longitude":"2.14182","streetName":"Alts Forns","streetNumber":"77","altitude":"35","slots":"6","bikes":"26","nearbyStations":"345, 346, 348, 349","status":"OPN"},{"id":"348","type":"BIKE","latitude":"41.357067","longitude":"2.141563","streetName":"Jardins de Can Ferrero","streetNumber":"","altitude":"13","slots":"6","bikes":"27","nearbyStations":"345, 346, 347, 349","status":"OPN"},{"id":"349","type":"BIKE","latitude":"41.357338","longitude":"2.137172","streetName":"Carrer de l'Energia","streetNumber":"2","altitude":"13","slots":"12","bikes":"20","nearbyStations":"345, 347, 348, 351","status":"OPN"},{"id":"350","type":"BIKE","latitude":"41.391833","longitude":"2.14812","streetName":"Villarroel","streetNumber":"208","altitude":"69","slots":"24","bikes":"7","nearbyStations":"88, 90, 101, 109","status":"OPN"},{"id":"351","type":"BIKE","latitude":"41.362135","longitude":"2.135637","streetName":"Jane Addams","streetNumber":"26","altitude":"48","slots":"4","bikes":"27","nearbyStations":"179, 345, 352, 404","status":"OPN"},{"id":"352","type":"BIKE","latitude":"41.36335","longitude":"2.134144","streetName":"Radi","streetNumber":"10","altitude":"48","slots":"21","bikes":"12","nearbyStations":"179, 346, 351, 404","status":"OPN"},{"id":"353","type":"BIKE","latitude":"41.375414","longitude":"2.123191","streetName":"Munn\u00e9","streetNumber":"6","altitude":"47","slots":"22","bikes":"1","nearbyStations":"309, 311, 314, 354","status":"OPN"},{"id":"354","type":"BIKE","latitude":"41.37592","longitude":"2.13008","streetName":"Rambla del Brasil","streetNumber":"5","altitude":"46","slots":"0","bikes":"25","nearbyStations":"188, 312, 313, 314","status":"OPN"},{"id":"355","type":"BIKE","latitude":"41.37211","longitude":"2.12859","streetName":"Carreras i Candi","streetNumber":"89","altitude":"39","slots":"17","bikes":"9","nearbyStations":"184, 313, 353, 354","status":"OPN"},{"id":"356","type":"BIKE","latitude":"41.413425","longitude":"2.163411","streetName":"Cam\u00e8lies","streetNumber":"73","altitude":"115","slots":"26","bikes":"0","nearbyStations":"227, 231, 276","status":"OPN"},{"id":"357","type":"BIKE","latitude":"41.410538","longitude":"2.1581","streetName":"Cardener","streetNumber":"82","altitude":"104","slots":"27","bikes":"0","nearbyStations":"227, 228, 231, 356","status":"CLS"},{"id":"358","type":"BIKE","latitude":"41.387225","longitude":"2.17927","streetName":"Gombau","streetNumber":"24","altitude":"16","slots":"2","bikes":"23","nearbyStations":"34, 35, 36, 390","status":"OPN"},{"id":"359","type":"BIKE","latitude":"41.390021","longitude":"2.177572","streetName":"M\u00e9ndez N\u00fa\u00f1ez","streetNumber":"16","altitude":"16","slots":"0","bikes":"26","nearbyStations":"5, 358, 362, 363","status":"OPN"},{"id":"360","type":"BIKE","latitude":"41.395213","longitude":"2.172984","streetName":"Bail\u00e9n","streetNumber":"62","altitude":"42","slots":"2","bikes":"26","nearbyStations":"15, 23, 362, 413","status":"OPN"},{"id":"361","type":"BIKE","latitude":"41.376292","longitude":"2.178553","streetName":"Passeig de Colom","streetNumber":"","altitude":"5","slots":"12","bikes":"19","nearbyStations":"56, 57, 376, 410","status":"OPN"},{"id":"362","type":"BIKE","latitude":"41.397006","longitude":"2.17057","streetName":"Bail\u00e9n","streetNumber":"100","altitude":"42","slots":"23","bikes":"3","nearbyStations":"15, 22, 123, 360","status":"OPN"},{"id":"363","type":"BIKE","latitude":"41.39076","longitude":"2.1744","streetName":"Bruc","streetNumber":"20","altitude":"32","slots":"10","bikes":"17","nearbyStations":"23, 34, 105, 359, 412","status":"OPN"},{"id":"364","type":"BIKE","latitude":"41.39324","longitude":"2.16343","streetName":"Passeig de Gr\u00e0cia","streetNumber":"61","altitude":"50","slots":"20","bikes":"11","nearbyStations":"60, 72, 92, 374","status":"OPN"},{"id":"365","type":"BIKE","latitude":"41.387499","longitude":"2.14702","streetName":"Viladomat","streetNumber":"244","altitude":"51","slots":"29","bikes":"4","nearbyStations":"67, 75, 89, 109","status":"OPN"},{"id":"366","type":"BIKE","latitude":"41.393037","longitude":"2.14358","streetName":"Pau Casals","streetNumber":"1","altitude":"69","slots":"15","bikes":"10","nearbyStations":"74, 101, 102, 208","status":"OPN"},{"id":"367","type":"BIKE","latitude":"41.385057","longitude":"2.137331","streetName":"Sentmenat","streetNumber":"39","altitude":"57","slots":"28","bikes":"0","nearbyStations":"75, 196, 197, 201","status":"OPN"},{"id":"368","type":"BIKE","latitude":"41.396815","longitude":"2.175714","streetName":"Diputaci\u00f3","streetNumber":"350","altitude":"21","slots":"23","bikes":"3","nearbyStations":"1, 360, 362, 387","status":"OPN"},{"id":"369","type":"BIKE","latitude":"41.400168","longitude":"2.177948","streetName":"Consell de Cent","streetNumber":"482","altitude":"28","slots":"11","bikes":"16","nearbyStations":"1, 22, 24, 30","status":"OPN"},{"id":"370","type":"BIKE","latitude":"41.403735","longitude":"2.172987","streetName":"Sardenya","streetNumber":"234","altitude":"49","slots":"26","bikes":"2","nearbyStations":"18, 19, 22, 120","status":"OPN"},{"id":"371","type":"BIKE","latitude":"41.404027","longitude":"2.181264","streetName":"Carrer dels Enamorats","streetNumber":"49","altitude":"28","slots":"4","bikes":"29","nearbyStations":"26, 30, 218, 369","status":"OPN"},{"id":"372","type":"BIKE","latitude":"41.400167","longitude":"2.184362","streetName":"Ribes","streetNumber":"77","altitude":"18","slots":"10","bikes":"15","nearbyStations":"1, 16, 119, 426","status":"OPN"},{"id":"373","type":"BIKE","latitude":"41.375073","longitude":"2.161305","streetName":"Av. Paral.lel","streetNumber":"132","altitude":"35","slots":"1","bikes":"35","nearbyStations":"85, 86, 113, 235","status":"OPN"},{"id":"374","type":"BIKE","latitude":"41.395","longitude":"2.16123","streetName":"Passeig de Gr\u00e0cia","streetNumber":"89","altitude":"50","slots":"8","bikes":"22","nearbyStations":"27, 68, 72, 92","status":"OPN"},{"id":"375","type":"BIKE","latitude":"41.372154","longitude":"2.180701","streetName":"World Trade Center","streetNumber":"","altitude":"1","slots":"16","bikes":"8","nearbyStations":"56, 57, 114, 376, 410","status":"OPN"},{"id":"376","type":"BIKE","latitude":"41.371663","longitude":"2.180302","streetName":"World Trade Center","streetNumber":"","altitude":"1","slots":"21","bikes":"5","nearbyStations":"56, 57, 361, 375, 378","status":"OPN"},{"id":"377","type":"BIKE","latitude":"41.37747","longitude":"2.183737","streetName":"Pl. Ict\u00edneo","streetNumber":"","altitude":"1","slots":"4","bikes":"25","nearbyStations":"37, 38, 126, 402","status":"OPN"},{"id":"378","type":"BIKE","latitude":"41.378516","longitude":"2.176716","streetName":"Pl.Joaquim Xira i Palau","streetNumber":"1","altitude":"5","slots":"3","bikes":"18","nearbyStations":"56, 57, 114, 425","status":"OPN"},{"id":"379","type":"BIKE","latitude":"41.381709","longitude":"2.177308","streetName":"Pl. Sant Miquel","streetNumber":"4","altitude":"5","slots":"5","bikes":"8","nearbyStations":"37, 55, 378, 401","status":"OPN"},{"id":"380","type":"BIKE","latitude":"41.385463","longitude":"2.174252","streetName":"Duran i Bas","streetNumber":"2","altitude":"32","slots":"13","bikes":"10","nearbyStations":"34, 36, 53, 395","status":"OPN"},{"id":"381","type":"BIKE","latitude":"41.381686","longitude":"2.167816","streetName":"Agust\u00ed Duran i Sanpere","streetNumber":"10","altitude":"24","slots":"1","bikes":"28","nearbyStations":"51, 59, 388, 415","status":"OPN"},{"id":"382","type":"BIKE","latitude":"41.403938","longitude":"2.204188","streetName":"Lope de Vega","streetNumber":"79","altitude":"10","slots":"24","bikes":"3","nearbyStations":"150, 154, 155, 162","status":"OPN"},{"id":"384","type":"BIKE","latitude":"41.380708","longitude":"2.146793","streetName":"Vilamar\u00ed","streetNumber":"85","altitude":"44","slots":"23","bikes":"4","nearbyStations":"81, 87, 100, 191","status":"OPN"},{"id":"385","type":"BIKE","latitude":"41.387978","longitude":"2.155266","streetName":"Casanova","streetNumber":"119","altitude":"45","slots":"27","bikes":"1","nearbyStations":"76, 89, 90, 110","status":"OPN"},{"id":"386","type":"BIKE","latitude":"41.375086","longitude":"2.156848","streetName":"Av.Paral.lel","streetNumber":"164","altitude":"40","slots":"23","bikes":"3","nearbyStations":"85, 112, 236, 237","status":"OPN"},{"id":"387","type":"BIKE","latitude":"41.395796","longitude":"2.178784","streetName":"N\u00e0pols","streetNumber":"125","altitude":"21","slots":"20","bikes":"2","nearbyStations":"1, 3, 119, 414","status":"OPN"},{"id":"388","type":"BIKE","latitude":"41.380593","longitude":"2.167418","streetName":"Riera Alta","streetNumber":"6","altitude":"24","slots":"0","bikes":"24","nearbyStations":"54, 58, 148, 381","status":"OPN"},{"id":"389","type":"BIKE","latitude":"41.38739","longitude":"2.1875","streetName":"Recinte Parc de la Ciutadella","streetNumber":"","altitude":"11","slots":"10","bikes":"17","nearbyStations":"6, 14, 47, 118","status":"OPN"},{"id":"390","type":"BIKE","latitude":"41.386955","longitude":"2.18195","streetName":"Comer\u00e7","streetNumber":"36","altitude":"16","slots":"1","bikes":"25","nearbyStations":"7, 9, 389","status":"OPN"},{"id":"391","type":"BIKE","latitude":"41.422873","longitude":"2.191204","streetName":"Sagrera","streetNumber":"74","altitude":"18","slots":"10","bikes":"16","nearbyStations":"238, 248, 289, 423","status":"OPN"},{"id":"392","type":"BIKE","latitude":"41.390595","longitude":"2.190681","streetName":"Ramon Turr\u00f3","streetNumber":"4","altitude":"11","slots":"0","bikes":"21","nearbyStations":"45, 47, 118, 409","status":"OPN"},{"id":"393","type":"BIKE","latitude":"41.402177","longitude":"2.197653","streetName":"Llacuna","streetNumber":"86","altitude":"16","slots":"28","bikes":"4","nearbyStations":"142, 152, 153, 428","status":"OPN"},{"id":"394","type":"BIKE","latitude":"41.387151","longitude":"2.162838","streetName":"Diputaci\u00f3","streetNumber":"226","altitude":"41","slots":"9","bikes":"18","nearbyStations":"79, 80, 209","status":"OPN"},{"id":"395","type":"BIKE","latitude":"41.386009","longitude":"2.170212","streetName":"Pl. Catalunya","streetNumber":"22","altitude":"32","slots":"8","bikes":"22","nearbyStations":"62, 63, 64, 65","status":"OPN"},{"id":"396","type":"BIKE","latitude":"41.389028","longitude":"2.196844","streetName":"Joan Mir\u00f3","streetNumber":"2","altitude":"1","slots":"1","bikes":"31","nearbyStations":"49, 117, 397, 407","status":"OPN"},{"id":"397","type":"BIKE","latitude":"41.388894","longitude":"2.199334","streetName":"Av. Del Litoral","streetNumber":"24","altitude":"1","slots":"13","bikes":"13","nearbyStations":"69, 117, 170, 172","status":"OPN"},{"id":"398","type":"BIKE","latitude":"41.381011","longitude":"2.193502","streetName":"Passeig Mar\u00edtim de la Barceloneta","streetNumber":"","altitude":"0","slots":"22","bikes":"4","nearbyStations":"11, 12, 124, 424","status":"OPN"},{"id":"400","type":"BIKE","latitude":"41.36958","longitude":"2.188017","streetName":"Moll Oriental","streetNumber":"","altitude":"5","slots":"11","bikes":"15","nearbyStations":"31, 32, 33, 41, 124","status":"OPN"},{"id":"401","type":"BIKE","latitude":"41.381241","longitude":"2.181838","streetName":"Pl. Antonio L\u00f3pez (Via Laietana) annexa a la 37","streetNumber":"","altitude":"5","slots":"2","bikes":"21","nearbyStations":"37, 115, 126, 402","status":"OPN"},{"id":"402","type":"BIKE","latitude":"41.380565","longitude":"2.182119","streetName":"Passeig de Colom","streetNumber":"","altitude":"5","slots":"1","bikes":"22","nearbyStations":"37, 38, 377, 401","status":"OPN"},{"id":"404","type":"BIKE","latitude":"41.365374","longitude":"2.133087","streetName":"Juan Gris","streetNumber":"28","altitude":"16","slots":"23","bikes":"2","nearbyStations":"179, 180, 184, 352","status":"OPN"},{"id":"405","type":"BIKE","latitude":"41.38551","longitude":"2.152","streetName":"Comte Borrell","streetNumber":"198","altitude":"45","slots":"21","bikes":"4","nearbyStations":"83, 87, 110, 225","status":"OPN"},{"id":"406","type":"BIKE","latitude":"41.386512","longitude":"2.164597","streetName":"Gran Via de Les Corts Catalanes","streetNumber":"592","altitude":"41","slots":"17","bikes":"14","nearbyStations":"62, 78, 79, 287","status":"OPN"},{"id":"407","type":"BIKE","latitude":"41.388471","longitude":"2.192835","streetName":"Ramon Trias Fargas","streetNumber":"19","altitude":"1","slots":"1","bikes":"24","nearbyStations":"46, 47, 69, 392","status":"OPN"},{"id":"408","type":"BIKE","latitude":"41.388988","longitude":"2.192283","streetName":"Ramon Trias Fargas","streetNumber":"23","altitude":"1","slots":"0","bikes":"35","nearbyStations":"46, 47, 392, 409","status":"OPN"},{"id":"409","type":"BIKE","latitude":"41.392272","longitude":"2.192556","streetName":"Joan d'\u00c0ustria","streetNumber":"31 B","altitude":"11","slots":"4","bikes":"14","nearbyStations":"45, 47, 149, 392","status":"OPN"},{"id":"410","type":"BIKE","latitude":"41.376433","longitude":"2.17871","streetName":"Passeig de Colom, s\/n","streetNumber":"","altitude":"5","slots":"19","bikes":"11","nearbyStations":"56, 57, 361, 375","status":"OPN"},{"id":"412","type":"BIKE","latitude":"41.389012","longitude":"2.172667","streetName":"Pl. Urquinaona","streetNumber":"3","altitude":"32","slots":"27","bikes":"0","nearbyStations":"34, 64, 65, 105, 363","status":"OPN"},{"id":"413","type":"BIKE","latitude":"41.393512","longitude":"2.170718","streetName":"Bruc","streetNumber":"66","altitude":"42","slots":"10","bikes":"15","nearbyStations":"15, 23, 25, 360","status":"OPN"},{"id":"414","type":"BIKE","latitude":"41.393744","longitude":"2.176451","streetName":"Casp","streetNumber":"67","altitude":"21","slots":"11","bikes":"21","nearbyStations":"23, 360, 363, 387","status":"OPN"},{"id":"415","type":"BIKE","latitude":"41.379374","longitude":"2.168921","streetName":"Rambla del Raval","streetNumber":"13","altitude":"24","slots":"1","bikes":"24","nearbyStations":"54, 187, 388, 416","status":"OPN"},{"id":"416","type":"BIKE","latitude":"41.378134","longitude":"2.16965","streetName":"Rambla del Raval","streetNumber":"20","altitude":"24","slots":"2","bikes":"22","nearbyStations":"54, 187, 388, 415","status":"OPN"},{"id":"418","type":"BIKE","latitude":"41.390943","longitude":"2.180251","streetName":"Passeig de Llu\u00eds Companys ","streetNumber":"","altitude":"16","slots":"11","bikes":"15","nearbyStations":"6, 7, 359, 419","status":"OPN"},{"id":"419","type":"BIKE","latitude":"41.391299","longitude":"2.180828","streetName":"Passeig de Llu\u00eds Companys","streetNumber":"","altitude":"16","slots":"6","bikes":"23","nearbyStations":"4, 6, 8, 418","status":"OPN"},{"id":"420","type":"BIKE","latitude":"41.374213","longitude":"2.148082","streetName":"Gran Via","streetNumber":"361","altitude":"61","slots":"22","bikes":"4","nearbyStations":"93, 94, 95, 96","status":"OPN"},{"id":"421","type":"BIKE","latitude":"41.378031","longitude":"2.139124","streetName":"Pla\u00e7a de Joan Peir\u00f3","streetNumber":"","altitude":"45","slots":"22","bikes":"10","nearbyStations":"98, 100, 188, 210","status":"OPN"},{"id":"423","type":"BIKE","latitude":"41.420201","longitude":"2.189532","streetName":"Carrer d'Hondures","streetNumber":"32","altitude":"18","slots":"12","bikes":"15","nearbyStations":"240, 248, 289, 391","status":"OPN"},{"id":"424","type":"BIKE","latitude":"41.379632","longitude":"2.192662","streetName":"Passeig Mar\u00edtim de la Barceloneta, devant del 5-7","streetNumber":"5","altitude":"0","slots":"0","bikes":"24","nearbyStations":"11, 41, 124, 398","status":"OPN"},{"id":"425","type":"BIKE","latitude":"41.37652","longitude":"2.1749","streetName":"Carrer de Cervell\u00f3","streetNumber":"5","altitude":"24","slots":"22","bikes":"5","nearbyStations":"50, 56, 57, 114","status":"OPN"},{"id":"426","type":"BIKE","latitude":"41.398305","longitude":"2.183023","streetName":"Carrer de Ribes","streetNumber":"59","altitude":"21","slots":"10","bikes":"22","nearbyStations":"1, 24, 119, 372","status":"OPN"},{"id":"427","type":"BIKE","latitude":"41.375336","longitude":"2.168007","streetName":"Carrer de Sant Pau","streetNumber":"119","altitude":"24","slots":"15","bikes":"6","nearbyStations":"50, 148, 187, 232","status":"OPN"},{"id":"428","type":"BIKE","latitude":"41.398389","longitude":"2.196261","streetName":"Carrer Pujades","streetNumber":"103","altitude":"11","slots":"14","bikes":"13","nearbyStations":"142, 149, 153, 161","status":"OPN"},{"id":"451","type":"BIKE-ELECTRIC","latitude":"41.37445","longitude":"2.159668","streetName":"(PK) C\/ JAUME FABRA","streetNumber":"12","altitude":"35","slots":"11","bikes":"1","nearbyStations":"453, 486","status":"OPN"},{"id":"452","type":"BIKE-ELECTRIC","latitude":"41.398747","longitude":"2.186289","streetName":"(PK) C\/ PADILLA","streetNumber":"159","altitude":"18","slots":"8","bikes":"1","nearbyStations":"459, 476","status":"OPN"},{"id":"453","type":"BIKE-ELECTRIC","latitude":"41.379563","longitude":"2.16204","streetName":"(PK) C\/ URGELL","streetNumber":"14","altitude":"35","slots":"6","bikes":"4","nearbyStations":"451, 480","status":"OPN"},{"id":"454","type":"BIKE-ELECTRIC","latitude":"41.402448","longitude":"2.204131","streetName":"(PK) C\/ BILBAO","streetNumber":"24","altitude":"18","slots":"9","bikes":"3","nearbyStations":"469","status":"OPN"},{"id":"455","type":"BIKE-ELECTRIC","latitude":"41.388966","longitude":"2.19917","streetName":"(PK) AV. DEL LITORAL","streetNumber":"34","altitude":"1","slots":"5","bikes":"5","nearbyStations":"467, 479","status":"OPN"},{"id":"456","type":"BIKE-ELECTRIC","latitude":"41.389853","longitude":"2.128581","streetName":"(PK) C\/ DE FLOS I CALCAT","streetNumber":"2","altitude":"60","slots":"3","bikes":"9","nearbyStations":"458, 470","status":"OPN"},{"id":"457","type":"BIKE-ELECTRIC","latitude":"41.401519","longitude":"2.134235","streetName":"(PK) C\/ DE JOSEP BALAR\u00cd","streetNumber":"2","altitude":"106","slots":"7","bikes":"5","nearbyStations":"465, 470","status":"OPN"},{"id":"458","type":"BIKE-ELECTRIC","latitude":"41.384344","longitude":"2.122085","streetName":"(PK) AV. JOAN XXIII","streetNumber":"23-25","altitude":"60","slots":"6","bikes":"6","nearbyStations":"456, 471","status":"OPN"},{"id":"459","type":"BIKE-ELECTRIC","latitude":"41.393941","longitude":"2.181443","streetName":"(PK) C\/ D'AL\u00cd BEI","streetNumber":"54","altitude":"21","slots":"6","bikes":"6","nearbyStations":"452, 492","status":"OPN"},{"id":"460","type":"BIKE-ELECTRIC","latitude":"41.385702","longitude":"2.177316","streetName":"(PK) AV. FRANCESC CAMB\u00d3","streetNumber":"10","altitude":"16","slots":"9","bikes":"3","nearbyStations":"485, 493","status":"OPN"},{"id":"461","type":"BIKE-ELECTRIC","latitude":"41.384111","longitude":"2.14274","streetName":"(PK) AV. JOSEP TARRADELLAS","streetNumber":"46","altitude":"51","slots":"5","bikes":"7","nearbyStations":"452, 481","status":"OPN"},{"id":"462","type":"BIKE-ELECTRIC","latitude":"41.390125","longitude":"2.143221","streetName":"(PK) AV. JOSEP TARRADELLAS","streetNumber":"139","altitude":"51","slots":"5","bikes":"5","nearbyStations":"461, 487","status":"OPN"},{"id":"463","type":"BIKE-ELECTRIC","latitude":"41.375244","longitude":"2.169795","streetName":"(PK) C\/ DE L\u00b4ABAT SAFONT","streetNumber":"2","altitude":"1","slots":"8","bikes":"2","nearbyStations":"453, 480","status":"OPN"},{"id":"464","type":"BIKE-ELECTRIC","latitude":"41.427727","longitude":"2.177205","streetName":"(PK) C\/ DE RAMON ALB\u00d3, 77s","streetNumber":"77","altitude":"42","slots":"5","bikes":"7","nearbyStations":"468, 488","status":"OPN"},{"id":"465","type":"BIKE-ELECTRIC","latitude":"41.40542","longitude":"2.142456","streetName":"(PK) RDA. DEL GENERAL MITRE","streetNumber":"203","altitude":"76","slots":"6","bikes":"6","nearbyStations":"457, 472","status":"OPN"},{"id":"466","type":"BIKE-ELECTRIC","latitude":"41.415745","longitude":"2.180684","streetName":"(PK) PG. MARAGALL","streetNumber":"54","altitude":"33","slots":"4","bikes":"8","nearbyStations":"475, 488","status":"OPN"},{"id":"467","type":"BIKE-ELECTRIC","latitude":"41.38582","longitude":"2.194135","streetName":"(PK) C\/ DEL DR. AIGUADER","streetNumber":"86-88","altitude":"1","slots":"7","bikes":"5","nearbyStations":"455, 479","status":"OPN"},{"id":"468","type":"BIKE-ELECTRIC","latitude":"41.430201","longitude":"2.187974","streetName":"(PK) C\/ DE LES MONGES","streetNumber":"2","altitude":"27","slots":"4","bikes":"8","nearbyStations":"464, 488","status":"OPN"},{"id":"469","type":"BIKE-ELECTRIC","latitude":"41.404362","longitude":"2.197132","streetName":"(PK) RAMBLA DEL POBLENOU","streetNumber":"130","altitude":"32","slots":"5","bikes":"7","nearbyStations":"454, 476","status":"OPN"},{"id":"470","type":"BIKE-ELECTRIC","latitude":"41.397921","longitude":"2.125411","streetName":"(PK) C\/ CARDENAL DE SENTMENAT","streetNumber":"8","altitude":"82","slots":"9","bikes":"3","nearbyStations":"457, 471","status":"OPN"},{"id":"471","type":"BIKE-ELECTRIC","latitude":"41.39415","longitude":"2.114973","streetName":"(PK) C\/ MARQU\u00c8S DE MULHAC\u00c9N","streetNumber":"51","altitude":"101","slots":"2","bikes":"10","nearbyStations":"458, 470","status":"OPN"},{"id":"472","type":"BIKE-ELECTRIC","latitude":"41.407353","longitude":"2.151341","streetName":"(PK) C\/ DEL TORRENT DE L\u00b4OLLA","streetNumber":"221","altitude":"72","slots":"5","bikes":"5","nearbyStations":"465, 474","status":"OPN"},{"id":"473","type":"BIKE-ELECTRIC","latitude":"41.404459","longitude":"2.214978","streetName":"(PK) PG. DE GARCIA F\u00c0RIA","streetNumber":"71","altitude":"1","slots":"10","bikes":"2","nearbyStations":"454, 482","status":"OPN"},{"id":"474","type":"BIKE-ELECTRIC","latitude":"41.3989","longitude":"2.153668","streetName":"(PK) PL. GAL\u00b7LA PLAC\u00cdDIA","streetNumber":"2","altitude":"59","slots":"6","bikes":"4","nearbyStations":"483, 486","status":"OPN"},{"id":"475","type":"BIKE-ELECTRIC","latitude":"41.408528","longitude":"2.169385","streetName":"(PK) C\/ DE LA MARINA","streetNumber":"345","altitude":"59","slots":"12","bikes":"0","nearbyStations":"483","status":"OPN"},{"id":"476","type":"BIKE-ELECTRIC","latitude":"41.402459","longitude":"2.19042","streetName":"(PK) C\/ DE BADAJOZ","streetNumber":"168","altitude":"18","slots":"4","bikes":"8","nearbyStations":"452, 469","status":"OPN"},{"id":"477","type":"BIKE-ELECTRIC","latitude":"41.376648","longitude":"2.178745","streetName":"(PK) PG. DE COLOM","streetNumber":"1","altitude":"1","slots":"3","bikes":"7","nearbyStations":"478, 493","status":"OPN"},{"id":"478","type":"BIKE-ELECTRIC","latitude":"41.3798","longitude":"2.1891","streetName":"(PK) C\/ DEL BALUARD","streetNumber":"27","altitude":"1","slots":"12","bikes":"0","nearbyStations":"467, 477","status":"OPN"},{"id":"479","type":"BIKE-ELECTRIC","latitude":"41.387298","longitude":"2.196595","streetName":"(PK) C\/ DE LA MARINA","streetNumber":"13-17","altitude":"1","slots":"4","bikes":"8","nearbyStations":"455, 467","status":"OPN"},{"id":"480","type":"BIKE-ELECTRIC","latitude":"41.381516","longitude":"2.170239","streetName":"(PK) C\/ DELS FLORISTES DE LA RAMBLA ","streetNumber":"8","altitude":"24","slots":"4","bikes":"8","nearbyStations":"463, 493","status":"OPN"},{"id":"481","type":"BIKE-ELECTRIC","latitude":"41.383036","longitude":"2.150337","streetName":"(PK) C\/ DE VAL\u00c8NCIA","streetNumber":"77","altitude":"44","slots":"8","bikes":"4","nearbyStations":"461, 495","status":"OPN"},{"id":"482","type":"BIKE-ELECTRIC","latitude":"41.41306","longitude":"2.22123","streetName":"(PK) PL. D'ERNEST LLUCH I MARTIN","streetNumber":"SN","altitude":"1","slots":"5","bikes":"7","nearbyStations":"473, 489","status":"OPN"},{"id":"483","type":"BIKE-ELECTRIC","latitude":"41.401752","longitude":"2.160748","streetName":"(PK) C\/ DE SIRACUSA","streetNumber":"39-51","altitude":"58","slots":"11","bikes":"1","nearbyStations":"474, 486","status":"OPN"},{"id":"484","type":"BIKE-ELECTRIC","latitude":"41.388101","longitude":"2.166997","streetName":"(PK) RAMBLA CATALUNYA - RDA. UNIVERSITAT","streetNumber":"SN","altitude":"40","slots":"5","bikes":"7","nearbyStations":"485, 494","status":"OPN"},{"id":"485","type":"BIKE-ELECTRIC","latitude":"41.389914","longitude":"2.173239","streetName":"(PK) PLA\u00c7A URQUINAONA","streetNumber":"SN","altitude":"32","slots":"8","bikes":"2","nearbyStations":"460, 492","status":"OPN"},{"id":"486","type":"BIKE-ELECTRIC","latitude":"41.396934","longitude":"2.159445","streetName":"(PK) PG. DE GR\u00c0CIA - DIAGONAL","streetNumber":"","altitude":"50","slots":"10","bikes":"2","nearbyStations":"451, 474","status":"OPN"},{"id":"487","type":"BIKE-ELECTRIC","latitude":"41.38921","longitude":"2.154","streetName":"(PK) PL. DE FERRER I CAJIGAL","streetNumber":"","altitude":"45","slots":"6","bikes":"6","nearbyStations":"462, 481","status":"OPN"},{"id":"488","type":"BIKE-ELECTRIC","latitude":"41.423976","longitude":"2.184391","streetName":"(PK) C\/ DE CIENFUEGOS","streetNumber":"13","altitude":"18","slots":"5","bikes":"7","nearbyStations":"464, 468","status":"OPN"},{"id":"489","type":"BIKE-ELECTRIC","latitude":"41.409532","longitude":"2.188282","streetName":"(PK) PLA\u00c7A CANONGE ROD\u00d3","streetNumber":"SN","altitude":"40","slots":"5","bikes":"7","nearbyStations":"469, 482","status":"OPN"},{"id":"491","type":"BIKE-ELECTRIC","latitude":"41.37252","longitude":"2.12898","streetName":"(PK) C\/ DE CARRERAS I CANDI","streetNumber":"65","altitude":"61","slots":"10","bikes":"2","nearbyStations":"458, 495","status":"OPN"},{"id":"492","type":"BIKE-ELECTRIC","latitude":"41.394232","longitude":"2.175278","streetName":"PL. DE TETUAN","streetNumber":"8-9 ","altitude":"21","slots":"14","bikes":"10","nearbyStations":"459, 485","status":"OPN"},{"id":"493","type":"BIKE-ELECTRIC","latitude":"41.38186","longitude":"2.177086","streetName":"PL. SANT MIQUEL","streetNumber":"4","altitude":"8","slots":"13","bikes":"11","nearbyStations":"460, 477","status":"OPN"},